{"type":"FeatureCollection","features":[{"type":"Feature","properties":{"id":"1","name":"(Fab)Lab Digiscope","website":"http:\/\/fablabdigiscope.wordpre","twitter":"","facebook":"","type_lab":"fablab","adress":"660 Rue Noetzlin, Gif-sur-Yvette, 91190","marker-color":"#f00","marker-size":"small"},"geometry":{"type":"Point","coordinates":[2.16843,48.7118]}},{"type":"Feature","properties":{"id":"2","name":"\/tmp\/lab","website":"http:\/\/www.tmplab.org\/","twitter":"","facebook":"","type_lab":"hackerspace","adress":"30 avenue de Newburn 94600 Choisy le Roi","marker-color":"#f00","marker-size":"small"},"geometry":{"type":"Point","coordinates":[2.41144,48.7551]}},{"type":"Feature","properties":{"id":"3","name":"8 FabLab Dr\u00f4me","website":"http:\/\/www.8fablab.fr\/","twitter":"","facebook":"","type_lab":"fablab","adress":"8 rue courre-comm\u00e8re, Crest, 26400","marker-color":"#f00","marker-size":"small"},"geometry":{"type":"Point","coordinates":[5.0235,44.7282]}},{"type":"Feature","properties":{"id":"4","name":"A.O.C & Usinette","website":"http:\/\/usinette.org\/hacklabs-f","twitter":"","facebook":"","type_lab":"hackerspace","adress":"Association Vall\u00e9e d'Humbligny Conques-Bas Village 18250 Humbligny","marker-color":"#f00","marker-size":"small"},"geometry":{"type":"Point","coordinates":[2.62782,47.2359]}},{"type":"Feature","properties":{"id":"5","name":"ACoLab","website":"acolab.fr","twitter":"","facebook":"https:\/\/www.facebook.com\/acolabfr","type_lab":"fablab","adress":"32 rue du pont naturel, 63000 clermont ferrand, france","marker-color":"#f00","marker-size":"small"},"geometry":{"type":"Point","coordinates":[3.07925,45.7833]}},{"type":"Feature","properties":{"id":"6","name":"Artilect FabLab Toulouse","website":"http:\/\/www.artilect.fr\/","twitter":"https:\/\/twitter.com\/FabLab_Toulouse","facebook":"","type_lab":"fablab","adress":"27bis All\u00e9es Maurice Sarraut, Toulouse, 31300","marker-color":"#f00","marker-size":"small"},"geometry":{"type":"Point","coordinates":[1.42143,43.5941]}},{"type":"Feature","properties":{"id":"7","name":"Artlab","website":"http:\/\/www.digitalarti.com\/art","twitter":"https:\/\/twitter.com\/digitalarti","facebook":"https:\/\/www.facebook.com\/artlab.fr","type_lab":"Art","adress":"13 rue des \u00e9cluses saint martin, Paris 10","marker-color":"#f00","marker-size":"small"},"geometry":{"type":"Point","coordinates":[2.36642,48.8764]}},{"type":"Feature","properties":{"id":"8","name":"Atelier Pobot","website":"http:\/\/www.pobot.org\/-Les-FabL","twitter":"https:\/\/twitter.com\/LeCortexBar","facebook":"https:\/\/www.facebook.com\/association.pobot","type_lab":"fablab","adress":"90 Rue Fr\u00e9d\u00e9ric Mistral, Centre International de Valbonne - Agora, Valbonne, 06560","marker-color":"#f00","marker-size":"small"},"geometry":{"type":"Point","coordinates":[7.00919,43.6415]}},{"type":"Feature","properties":{"id":"9","name":"AV Lab","website":"http:\/\/av-lab.net\/","twitter":"","facebook":"","type_lab":"fablab","adress":"4 rue de la Douane 67000 Strasbourg","marker-color":"#f00","marker-size":"small"},"geometry":{"type":"Point","coordinates":[7.74971,48.5796]}},{"type":"Feature","properties":{"id":"10","name":"AV-exciters","website":"http:\/\/av-exciters.com\/AV-Lab\/","twitter":"","facebook":"","type_lab":"fablab","adress":"37 rue des fr\u00e8res, Strasbourg, 67000","marker-color":"#f00","marker-size":"small"},"geometry":{"type":"Point","coordinates":[7.75408,48.5831]}},{"type":"Feature","properties":{"id":"11","name":"BlackBoxe","website":"http:\/\/blackboxe.org\/","twitter":"","facebook":"","type_lab":"hackerspace","adress":"La Caserne 20 rue de Reuilly, 75012 Paris","marker-color":"#f00","marker-size":"small"},"geometry":{"type":"Point","coordinates":[2.38668,48.8477]}},{"type":"Feature","properties":{"id":"12","name":"Breizh Entropy","website":"http:\/\/breizh-entropy.org\/","twitter":"","facebook":"","type_lab":"hackerspace","adress":"48 boulevard Villebois Mareuil Rennes","marker-color":"#f00","marker-size":"small"},"geometry":{"type":"Point","coordinates":[-1.65119,48.1068]}},{"type":"Feature","properties":{"id":"13","name":"Brewlab","website":"http:\/\/www.brewlab.fr","twitter":"https:\/\/twitter.com\/BrewLab77","facebook":"https:\/\/www.facebook.com\/pages\/Brewlab\/51824517158","type_lab":"fablab","adress":"ZAC, 77500 Chelles, Ile-De-France","marker-color":"#f00","marker-size":"small"},"geometry":{"type":"Point","coordinates":[2.59016,48.8775]}},{"type":"Feature","properties":{"id":"14","name":"Campusfab","website":"http:\/\/www.univ-toulouse.fr\/un","twitter":"https:\/\/twitter.com\/fablabups","facebook":"","type_lab":"Educ","adress":"Universit\u00e9 Paul Sabatier - Campus de Rangueil - 118 Route de Narbonne, 31062 Toulouse","marker-color":"#f00","marker-size":"small"},"geometry":{"type":"Point","coordinates":[1.4717,43.5576]}},{"type":"Feature","properties":{"id":"15","name":"CC.META","website":"http:\/\/cc-meta.cc\/","twitter":"https:\/\/twitter.com\/cc_meta","facebook":"https:\/\/www.facebook.com\/cc.meta?fref=ts","type_lab":"hackerspace","adress":"Blois, Centre","marker-color":"#f00","marker-size":"small"},"geometry":{"type":"Point","coordinates":[1.33595,47.5861]}},{"type":"Feature","properties":{"id":"16","name":"Cerfav FabLab (Centre Europ\u00e9en","website":"http:\/\/www.cerfav.fr\/fablab","twitter":"https:\/\/twitter.com\/CerfavFablab","facebook":"https:\/\/www.facebook.com\/pages\/Cerfav-Fablab\/48257","type_lab":"fablab","adress":"Plateforme verri\u00e8re - Rue de la Libert\u00e9 54112 Vannes le ch\u00e2tel","marker-color":"#f00","marker-size":"small"},"geometry":{"type":"Point","coordinates":[5.78051,48.5465]}},{"type":"Feature","properties":{"id":"17","name":"CH01","website":"http:\/\/www.hackers-lab.org","twitter":"https:\/\/twitter.com\/hackers_lab","facebook":"https:\/\/www.facebook.com\/Hackers.Labs","type_lab":"hackerspace","adress":"149 Rue Antoine Crocce 20100 Sart\u00e8ne","marker-color":"#f00","marker-size":"small"},"geometry":{"type":"Point","coordinates":[8.97291,41.6211]}},{"type":"Feature","properties":{"id":"18","name":"Chantier Libre","website":"http:\/\/chantierlibre.org\/","twitter":"","facebook":"","type_lab":"fablab","adress":"Lachat, Cordelle, 42123","marker-color":"#f00","marker-size":"small"},"geometry":{"type":"Point","coordinates":[4.05079,45.9458]}},{"type":"Feature","properties":{"id":"19","name":"Coglab","website":"http:\/\/coglab.fr\/","twitter":"https:\/\/twitter.com\/SCogLab","facebook":"www.facebook.com\/SCogLab\/","type_lab":"fablab","adress":"226 rue saint denis 75002 PARIS","marker-color":"#f00","marker-size":"small"},"geometry":{"type":"Point","coordinates":[2.35242,48.8684]}},{"type":"Feature","properties":{"id":"20","name":"Corr\u00e8ze Elab","website":"http:\/\/correze-elab.gandi.ws\/","twitter":"","facebook":"https:\/\/www.facebook.com\/pages\/Correze-elab\/274760","type_lab":"hackerspace","adress":"Salles de associations Place de la poste Limousin-19500 Meyssac","marker-color":"#f00","marker-size":"small"},"geometry":{"type":"Point","coordinates":[1.67435,45.0559]}},{"type":"Feature","properties":{"id":"21","name":"CRAS","website":"http:\/\/www.craslab.org\/","twitter":"https:\/\/twitter.com\/mainsdoeuvres","facebook":"https:\/\/www.facebook.com\/mains.doeuvres","type_lab":"fablab","adress":"1, rue Charles Garnier - 93400 Saint-Ouen","marker-color":"#f00","marker-size":"small"},"geometry":{"type":"Point","coordinates":[2.33899,48.9052]}},{"type":"Feature","properties":{"id":"22","name":"CRI Paris","website":"http:\/\/cri-paris.org\/","twitter":"www.twitter.com\/criparis","facebook":"https:\/\/www.facebook.com\/pages\/CRI-Paris-Center-fo","type_lab":"Educ","adress":"8-10 rue Charles V 75004 Paris","marker-color":"#f00","marker-size":"small"},"geometry":{"type":"Point","coordinates":[2.36283,48.8532]}},{"type":"Feature","properties":{"id":"23","name":"Dorkbot Paris","website":"http:\/\/dorkbotparis.org\/","twitter":"","facebook":"","type_lab":"Art","adress":"Parsons Paris, 45 Rue Saint-Roch, 75001 Paris","marker-color":"#f00","marker-size":"small"},"geometry":{"type":"Point","coordinates":[2.33289,48.8665]}},{"type":"Feature","properties":{"id":"24","name":"Dragolab","website":"http:\/\/www.modlab.fr\/","twitter":"","facebook":"https:\/\/www.facebook.com\/associationmode","type_lab":"medialab","adress":"Esplanade de l\u2019Internet \u00abEspace Public Num\u00e9rique\u00bb - 53, Bd des Martyrs de la R\u00e9sistance 83300 Dragui","marker-color":"#f00","marker-size":"small"},"geometry":{"type":"Point","coordinates":[6.4655,43.5342]}},{"type":"Feature","properties":{"id":"25","name":"Ecodesign Lab","website":"http:\/\/www.apedec.org\/","twitter":"https:\/\/twitter.com\/ecodesignfablab","facebook":"https:\/\/www.facebook.com\/ecodesignlab.apedec?fref=","type_lab":"fablab","adress":"APEDEC \/ \u00c9codesign Fab Lab, MOZINOR 2 \u00e0 20 avenue du pr\u00e9sident Salvador Allende 93106 Montreuil sous","marker-color":"#f00","marker-size":"small"},"geometry":{"type":"Point","coordinates":[2.45678,48.8696]}},{"type":"Feature","properties":{"id":"26","name":"Electrocycle","website":"http:\/\/www.assod3e.org\/","twitter":"","facebook":"","type_lab":"hackerspace","adress":"La Rockette libre, 125 rue du Chamin Vert 75011 Paris","marker-color":"#f00","marker-size":"small"},"geometry":{"type":"Point","coordinates":[2.38348,48.8627]}},{"type":"Feature","properties":{"id":"27","name":"Electrolab","website":"http:\/\/www.electrolab.fr\/","twitter":"www.twitter.com\/Electrolab_Fr","facebook":"www.facebook.com\/ElectrolabFr\/","type_lab":"fablab","adress":"Nanterre ","marker-color":"#f00","marker-size":"small"},"geometry":{"type":"Point","coordinates":[2.1146,48.5343]}},{"type":"Feature","properties":{"id":"28","name":"EnsadLab","website":"http:\/\/www.ensad.fr\/recherche\/","twitter":"https:\/\/twitter.com\/EnsadLab","facebook":"","type_lab":"Educ","adress":"31 rue d\u2019Ulm 75005 Paris","marker-color":"#f00","marker-size":"small"},"geometry":{"type":"Point","coordinates":[2.34484,48.8436]}},{"type":"Feature","properties":{"id":"29","name":"Etolab","website":"http:\/\/www.etolab.com\/","twitter":"https:\/\/twitter.com\/etolab","facebook":"https:\/\/www.facebook.com\/fablabamiens","type_lab":"fablab","adress":"30 rue St Leu 80 000 amiens","marker-color":"#f00","marker-size":"small"},"geometry":{"type":"Point","coordinates":[2.30092,49.8974]}},{"type":"Feature","properties":{"id":"30","name":"FabLab AIR-Polytech Grenoble","website":"http:\/\/air.imag.fr\/index.php\/M","twitter":"","facebook":"","type_lab":"Educ","adress":"28, avenue Benoit Frachon, 38400 St Martin d'H\u00e8res","marker-color":"#f00","marker-size":"small"},"geometry":{"type":"Point","coordinates":[5.75243,45.1846]}},{"type":"Feature","properties":{"id":"31","name":"FabLab Ensimag","website":"http:\/\/fablab.ensimag.fr\/index","twitter":"","facebook":"","type_lab":"Educ","adress":"681, rue de la Passerelle, 38400 Saint-Martin-d'H\u00e8res","marker-color":"#f00","marker-size":"small"},"geometry":{"type":"Point","coordinates":[5.76829,45.1934]}},{"type":"Feature","properties":{"id":"32","name":"Fab44","website":"http:\/\/lefab44.com\/","twitter":"","facebook":"","type_lab":"fablab","adress":"1 Boulevard Paul Leferme 44600 Saint-Nazaire","marker-color":"#f00","marker-size":"small"},"geometry":{"type":"Point","coordinates":[-2.20338,47.2771]}},{"type":"Feature","properties":{"id":"33","name":"FabLab","website":"http:\/\/www.fablab-lyon.fr\/","twitter":"https:\/\/twitter.com\/FabLabLyon","facebook":"https:\/\/www.facebook.com\/fabrique.dobjetslibres","type_lab":"fablab","adress":"6 bis rue de l\u2019Oiseli\u00e8re 69009 Lyon","marker-color":"#f00","marker-size":"small"},"geometry":{"type":"Point","coordinates":[4.80227,45.7754]}},{"type":"Feature","properties":{"id":"34","name":"FabLab","website":"http:\/\/fablab.tech-orleans.fr\/","twitter":"","facebook":"","type_lab":"fablab","adress":"4 Rue de Tours, 45100 Orl\u00e9ans ?","marker-color":"#f00","marker-size":"small"},"geometry":{"type":"Point","coordinates":[1.93804,47.8423]}},{"type":"Feature","properties":{"id":"35","name":"FabLab Caen Basse Normandie","website":"http:\/\/fablabcaen.blogspot.fr\/","twitter":"","facebook":"","type_lab":"fablab","adress":"8 rue L\u00e9opold S\u00e9dar Senghor, B\u00e2timent Erable, 14460 Colombelles","marker-color":"#f00","marker-size":"small"},"geometry":{"type":"Point","coordinates":[-0.30675,49.1881]}},{"type":"Feature","properties":{"id":"36","name":"FabLab Comtois Champagnole","website":"http:\/\/www.netvibes.com\/fablab","twitter":"","facebook":"https:\/\/www.facebook.com\/FabLabChampagnole?fref=ts","type_lab":"fablab","adress":"625 Rue de Gottmadingen 39300 Champagnole","marker-color":"#f00","marker-size":"small"},"geometry":{"type":"Point","coordinates":[5.92296,46.7427]}},{"type":"Feature","properties":{"id":"37","name":"FabLab Comtois Net-Iki","website":"http:\/\/www.net-village.org\/fab","twitter":"https:\/\/twitter.com\/fablabiki","facebook":"https:\/\/www.facebook.com\/FabLabNetiki","type_lab":"fablab","adress":"3 rue de l'\u00e9glise 39290 Biarne","marker-color":"#f00","marker-size":"small"},"geometry":{"type":"Point","coordinates":[5.45608,47.1459]}},{"type":"Feature","properties":{"id":"38","name":"FabLab La Casemate CCSTI Greno","website":"http:\/\/fablab.ccsti-grenoble.o","twitter":"https:\/\/twitter.com\/FablabGrenoble","facebook":"https:\/\/www.facebook.com\/FablabGrenoble?fref=ts","type_lab":"fablab","adress":"1 Place Saint-Laurent 38000 Grenoble","marker-color":"#f00","marker-size":"small"},"geometry":{"type":"Point","coordinates":[5.73207,45.1975]}},{"type":"Feature","properties":{"id":"39","name":"FabLab Lannion KerNEL","website":"http:\/\/fablab-lannion.org\/","twitter":"https:\/\/twitter.com\/fablablannion","facebook":"https:\/\/www.facebook.com\/fablablannion","type_lab":"fablab","adress":"14 rue de Beauchamp 22300 Lannion","marker-color":"#f00","marker-size":"small"},"geometry":{"type":"Point","coordinates":[-3.45071,48.7316]}},{"type":"Feature","properties":{"id":"40","name":"FabLab Lille","website":"http:\/\/www.fablablille.fr\/","twitter":"https:\/\/twitter.com\/FabLab_Lille","facebook":"","type_lab":"fablab","adress":"2 all\u00e9e Lakanal 59650 Villeneuve d'Ascq","marker-color":"#f00","marker-size":"small"},"geometry":{"type":"Point","coordinates":[3.13862,50.6427]}},{"type":"Feature","properties":{"id":"41","name":"FabLab MJC Kerfeusteun","website":"http:\/\/www.mjckerfeunteun.org\/","twitter":"https:\/\/twitter.com\/mjckerfeunteun","facebook":"https:\/\/www.facebook.com\/mjckerfeunteun","type_lab":"fablab","adress":"4 Rue Teilhard de Chardin, 29000 Quimper","marker-color":"#f00","marker-size":"small"},"geometry":{"type":"Point","coordinates":[-4.09347,48.0033]}},{"type":"Feature","properties":{"id":"42","name":"FabLab Pau","website":"http:\/\/www.fablab-pau.org\/","twitter":"","facebook":"","type_lab":"fablab","adress":"18 Rue Latapie, Pau, 64000","marker-color":"#f00","marker-size":"small"},"geometry":{"type":"Point","coordinates":[-0.36755,43.2957]}},{"type":"Feature","properties":{"id":"43","name":"FabLab Robert Houdin","website":"http:\/\/fablab-robert-houdin.or","twitter":"","facebook":"","type_lab":"fablab","adress":"20 rue de la lib\u00e9ration 41120 Chailles","marker-color":"#f00","marker-size":"small"},"geometry":{"type":"Point","coordinates":[1.30343,47.5227]}},{"type":"Feature","properties":{"id":"44","name":"Fablab Web-5","website":"http:\/\/fablab.web-5.org\/doku.p","twitter":"https:\/\/twitter.com\/web5_fablab","facebook":"","type_lab":"fablab","adress":"3, place du 14 juillet, IUT de B\u00e9ziers, B\u00e9ziers, 34500","marker-color":"#f00","marker-size":"small"},"geometry":{"type":"Point","coordinates":[3.22224,43.3465]}},{"type":"Feature","properties":{"id":"45","name":"FabMSTIC","website":"http:\/\/fabmstic.liglab.fr\/","twitter":"","facebook":"","type_lab":"Educ","adress":"B\u00e2timent C IM2AG, 220 rue de la Chimie, 38400 Saint Martin d\u2019H\u00e8res","marker-color":"#f00","marker-size":"small"},"geometry":{"type":"Point","coordinates":[5.7702,45.1942]}},{"type":"Feature","properties":{"id":"46","name":"Fabrique pola","website":"http:\/\/www.pola.fr\/","twitter":"","facebook":"","type_lab":"fablab","adress":"Cit\u00e9 Num\u00e9rique 2, rue Marc Sangnier 33130 B\u00e8gles","marker-color":"#f00","marker-size":"small"},"geometry":{"type":"Point","coordinates":[-0.55444,44.8122]}},{"type":"Feature","properties":{"id":"47","name":"Fabriques alternatives","website":"http:\/\/www.fabriques-alternati","twitter":"","facebook":"https:\/\/www.facebook.com\/pages\/Fabriques-Alternati","type_lab":"fablab","adress":"Mont-de-Marsan, 40000,","marker-color":"#f00","marker-size":"small"},"geometry":{"type":"Point","coordinates":[-0.5203,43.691]}},{"type":"Feature","properties":{"id":"48","name":"FacLab","website":"http:\/\/www.faclab.org\/","twitter":"https:\/\/twitter.com\/FacLabUcp","facebook":"https:\/\/www.facebook.com\/faclab?fref=ts","type_lab":"Educ","adress":"universit\u00e9 de Cergy-Pontoise - Avenue Marcel Paul, Z.A.C. des Barbanniers, 92230 Gennevilliers","marker-color":"#f00","marker-size":"small"},"geometry":{"type":"Point","coordinates":[2.29327,48.9255]}},{"type":"Feature","properties":{"id":"49","name":"Flammekueche Connection - LUG ","website":"http:\/\/tux.u-strasbg.fr\/","twitter":"","facebook":"","type_lab":"hackerspace","adress":"Association LiLo - LUG de Strasbourg la maison des associations 1\u00aa place des Orphelins 67000 Strasbo","marker-color":"#f00","marker-size":"small"},"geometry":{"type":"Point","coordinates":[7.75426,48.5789]}},{"type":"Feature","properties":{"id":"50","name":"FlyLab","website":"http:\/\/www.leflylab.com\/","twitter":"https:\/\/twitter.com\/LeFlyLab","facebook":"","type_lab":"fablab","adress":"Paris","marker-color":"#f00","marker-size":"small"},"geometry":{"type":"Point","coordinates":[2.34399,48.8676]}},{"type":"Feature","properties":{"id":"51","name":"Formalab","website":"http:\/\/formalab.fr\/","twitter":"","facebook":"","type_lab":"fablab","adress":"Lyc\u00e9e Charles et Adrien Dupuy Avenue du Docteur Durand 43000 Puy-en-Velay","marker-color":"#f00","marker-size":"small"},"geometry":{"type":"Point","coordinates":[3.89228,45.0362]}},{"type":"Feature","properties":{"id":"52","name":"Freespace","website":"http:\/\/paris-freespace.com\/","twitter":"https:\/\/twitter.com\/ParisFreespace","facebook":"https:\/\/www.facebook.com\/paris.freespace","type_lab":"hackerspace","adress":"nc\/Paris","marker-color":"#f00","marker-size":"small"},"geometry":{"type":"Point","coordinates":[2.35222,48.8566]}},{"type":"Feature","properties":{"id":"53","name":"FunLab","website":"http:\/\/funlab.fr\/nous-contacte","twitter":"","facebook":"https:\/\/www.facebook.com\/FablabTourangeau?fref=ts","type_lab":"fablab","adress":"30, Rue Andr\u00e9 Theuriet, Tours, 37000","marker-color":"#f00","marker-size":"small"},"geometry":{"type":"Point","coordinates":[0.69747,47.3831]}},{"type":"Feature","properties":{"id":"54","name":"Gamerz","website":"http:\/\/www.lab-gamerz.com\/","twitter":"","facebook":"","type_lab":"fablab","adress":"Patio du Bois de l\u2019Aune, 1 place Victor Schoelcher 13090 Aix en Provence","marker-color":"#f00","marker-size":"small"},"geometry":{"type":"Point","coordinates":[5.41485,43.5265]}},{"type":"Feature","properties":{"id":"55","name":"Gi-Nova","website":"http:\/\/www.aip-primeca-ds.net\/","twitter":"","facebook":"","type_lab":"fablab","adress":"46, avenue Felix Viallet, 38031 Grenoble","marker-color":"#f00","marker-size":"small"},"geometry":{"type":"Point","coordinates":[5.7174,45.1907]}},{"type":"Feature","properties":{"id":"56","name":"Graoulab","website":"http:\/\/www.graoulab.org\/","twitter":"https:\/\/twitter.com\/FabLabMetz","facebook":"https:\/\/www.facebook.com\/GraouLab","type_lab":"fablab","adress":"Annexe du cener socio-culturel - 1 rue du bois de la dame, 77050 Metz","marker-color":"#f00","marker-size":"small"},"geometry":{"type":"Point","coordinates":[6.24591,49.0953]}},{"type":"Feature","properties":{"id":"57","name":"GRLFrance (Graffiti Research L","website":"http:\/\/graffitiresearchlab.fr\/","twitter":"https:\/\/twitter.com\/GRLFR","facebook":"https:\/\/www.facebook.com\/grlfr","type_lab":"Art","adress":"En r\u00e9sidence \u00e0 la Gait\u00e9 Lyrique - 3bis Rue Papin, 75003 Paris","marker-color":"#f00","marker-size":"small"},"geometry":{"type":"Point","coordinates":[2.35401,48.8668]}},{"type":"Feature","properties":{"id":"58","name":"GSILab","website":"http:\/\/gsilab.appointy.com\/","twitter":"","facebook":"https:\/\/www.facebook.com\/GSILab","type_lab":"fablab","adress":"Espace Lorraine Fab Living Lab des Ateliers du Bras Vert, 49 Boulevard d'Austrasie,  Nancy,  54000","marker-color":"#f00","marker-size":"small"},"geometry":{"type":"Point","coordinates":[6.1993,48.6929]}},{"type":"Feature","properties":{"id":"59","name":"HackEns","website":"http:\/\/hackens.org\/","twitter":"","facebook":"","type_lab":"Educ","adress":"Ecole Normale sup\u00e9rieure, rue d'ulm, Paris","marker-color":"#f00","marker-size":"small"},"geometry":{"type":"Point","coordinates":[2.34517,48.8422]}},{"type":"Feature","properties":{"id":"60","name":"Hackers Ouverts","website":"http:\/\/www.hackersouverts.fr","twitter":"https:\/\/twitter.com\/hackersouverts","facebook":"","type_lab":"hackerspace","adress":"Epinay sur Seine","marker-color":"#f00","marker-size":"small"},"geometry":{"type":"Point","coordinates":[2.31474,48.9557]}},{"type":"Feature","properties":{"id":"61","name":"HackGyver","website":"http:\/\/www.hackgyver.org","twitter":"https:\/\/twitter.com\/Hack_Gyver","facebook":"https:\/\/www.facebook.com\/HackGyver","type_lab":"hackerspace","adress":"6 rue de l'\u00e9tang, 90000 Belfort","marker-color":"#f00","marker-size":"small"},"geometry":{"type":"Point","coordinates":[6.84545,47.6426]}},{"type":"Feature","properties":{"id":"62","name":"HacKnowledge","website":"http:\/\/www.hacknowledge.org\/dr","twitter":"","facebook":"","type_lab":"hackerspace","adress":"Elaboratoire, 48 boulevard Villebois-Mareuil, 35000 Rennes","marker-color":"#f00","marker-size":"small"},"geometry":{"type":"Point","coordinates":[-1.65119,48.1068]}},{"type":"Feature","properties":{"id":"63","name":"Hackstub","website":"http:\/\/hackstub.netlib.re\/","twitter":"","facebook":"","type_lab":"hackerspace","adress":"285a, avenue de Colmar, 67100 Strasbourg","marker-color":"#f00","marker-size":"small"},"geometry":{"type":"Point","coordinates":[7.74375,48.5521]}},{"type":"Feature","properties":{"id":"64","name":"HZV","website":"https:\/\/www.hackerzvoice.net","twitter":"https:\/\/twitter.com\/hackerzvoice","facebook":"","type_lab":"hackerspace","adress":"Sysdream  108 Avenue Gabriel P\u00e9ri  93400 Saint-Ouen","marker-color":"#f00","marker-size":"small"},"geometry":{"type":"Point","coordinates":[2.33048,48.9041]}},{"type":"Feature","properties":{"id":"65","name":"ICI Montreuil","website":"http:\/\/www.icimontreuil.com\/","twitter":"https:\/\/twitter.com\/ICIMontreuil","facebook":"https:\/\/www.facebook.com\/ICIMontreuil","type_lab":"Art","adress":"135 boulevard Chanzy 93100 Montreuil","marker-color":"#f00","marker-size":"small"},"geometry":{"type":"Point","coordinates":[2.42595,48.8588]}},{"type":"Feature","properties":{"id":"66","name":"INIRIA Creativity Lab for smar","website":"https:\/\/amiqual4home.inria.fr\/","twitter":"","facebook":"","type_lab":"Educ","adress":"655, avenue de l'Europe, 38330 Montbonnot-Saint-Martin","marker-color":"#f00","marker-size":"small"},"geometry":{"type":"Point","coordinates":[5.80737,45.2179]}},{"type":"Feature","properties":{"id":"67","name":"Ip\u00e9fix","website":"http:\/\/ipefix.fr\/","twitter":"https:\/\/twitter.com\/_ipefix_","facebook":"https:\/\/www.facebook.com\/pages\/Ip%C3%A9fix\/2654294","type_lab":"hackerspace","adress":"30, rue de Bruxelles, Angers","marker-color":"#f00","marker-size":"small"},"geometry":{"type":"Point","coordinates":[-0.54448,47.4558]}},{"type":"Feature","properties":{"id":"68","name":"Jeanne D'Hack","website":"http:\/\/www.jeannedhack.org\/","twitter":"https:\/\/twitter.com\/jeannedhack","facebook":"","type_lab":"hackerspace","adress":"18 rue Sainte-Croix-Des-Pelletiers, Rouen","marker-color":"#f00","marker-size":"small"},"geometry":{"type":"Point","coordinates":[1.08977,49.4438]}},{"type":"Feature","properties":{"id":"69","name":"KelleFabrik","website":"http:\/\/kellefabrik.blogspot.fr","twitter":"","facebook":"https:\/\/www.facebook.com\/KelleFabriK","type_lab":"fablab","adress":"Maison des Associations de Dijon - 2 rue des Corroyeurs 21000 Dijon","marker-color":"#f00","marker-size":"small"},"geometry":{"type":"Point","coordinates":[5.03195,47.3152]}},{"type":"Feature","properties":{"id":"70","name":"L@Bx","website":"https:\/\/www.labx.fr","twitter":"https:\/\/twitter.com\/labxhacklab","facebook":"","type_lab":"hackerspace","adress":"ancien centre de tri de La Poste, Rue Marc Sangnier, B\u00e9gles","marker-color":"#f00","marker-size":"small"},"geometry":{"type":"Point","coordinates":[-0.55367,44.8118]}},{"type":"Feature","properties":{"id":"71","name":"L0AD","website":"http:\/\/blog.l0ad.org","twitter":"","facebook":"","type_lab":"hackerspace","adress":"IUT de Valence 51, rue Barth\u00e9l\u00e9my de Laffemas BP 29 26901 VALENCE CEDEX 9","marker-color":"#f00","marker-size":"small"},"geometry":{"type":"Point","coordinates":[2.33739,48.8936]}},{"type":"Feature","properties":{"id":"72","name":"La Cantine num\u00e9rique by TVT In","website":"http:\/\/www.lacantine-toulon.or","twitter":"https:\/\/twitter.com\/LaCantinebyTVT","facebook":"https:\/\/www.facebook.com\/LaCantinebyTVT","type_lab":"medialab","adress":"Maison des technologies - Place G. Pompidou 83500 Toulon","marker-color":"#f00","marker-size":"small"},"geometry":{"type":"Point","coordinates":[5.93916,43.1207]}},{"type":"Feature","properties":{"id":"73","name":"La Fabrique d'Objets Libres \/ ","website":"http:\/\/www.fablab-lyon.fr\/","twitter":"https:\/\/twitter.com\/FabLabLyon","facebook":"https:\/\/www.facebook.com\/fabrique.dobjetslibres","type_lab":"fablab","adress":"All\u00e9e Gaillard Romanet, MJC Louis Aragon, Bron, 69500","marker-color":"#f00","marker-size":"small"},"geometry":{"type":"Point","coordinates":[4.91193,45.7333]}},{"type":"Feature","properties":{"id":"74","name":"La Fabulerie","website":"http:\/\/lafabulerie.com\/","twitter":"https:\/\/twitter.com\/Your_Future_now","facebook":"https:\/\/www.facebook.com\/pages\/Design-the-Future-N","type_lab":"fablab","adress":"4 rue de la bibliotheque 13001 Marseille","marker-color":"#f00","marker-size":"small"},"geometry":{"type":"Point","coordinates":[5.38391,43.2952]}},{"type":"Feature","properties":{"id":"75","name":"La forge des possibles","website":"http:\/\/www.laforgedespossibles","twitter":"","facebook":"","type_lab":"fablab","adress":"1 place Jacquard 85000 La Roche sur Yon","marker-color":"#f00","marker-size":"small"},"geometry":{"type":"Point","coordinates":[-1.42665,46.6706]}},{"type":"Feature","properties":{"id":"76","name":"La Paillasse","website":"http:\/\/www.lapaillasse.org\/","twitter":"https:\/\/twitter.com\/lapaillasse","facebook":"https:\/\/www.facebook.com\/lapaillassehackers","type_lab":"biohacklab","adress":"226 rue saint denis 75002 Paris","marker-color":"#f00","marker-size":"small"},"geometry":{"type":"Point","coordinates":[2.35206,48.8685]}},{"type":"Feature","properties":{"id":"77","name":"La plage digitale","website":"http:\/\/www.laplagedigitale.eu\/","twitter":"https:\/\/twitter.com\/laplagedigitale","facebook":"https:\/\/www.facebook.com\/laplagedigitale","type_lab":"medialab","adress":"15 route du Rhin 67100 Strasbourg","marker-color":"#f00","marker-size":"small"},"geometry":{"type":"Point","coordinates":[7.76025,48.573]}},{"type":"Feature","properties":{"id":"78","name":"La reFrabrique","website":"http:\/\/la-refabrique.fr\/","twitter":"","facebook":"https:\/\/www.facebook.com\/LaRefabrique","type_lab":"fablab","adress":"14 rue Jean Giono, les olivarelles 2 - Villa 8, Cannes, Provence-Alpes-Cote d'Azur, 06150","marker-color":"#f00","marker-size":"small"},"geometry":{"type":"Point","coordinates":[7.01737,43.5528]}},{"type":"Feature","properties":{"id":"79","name":"La Rockette libre","website":"http:\/\/rockette-libre.org","twitter":"","facebook":"","type_lab":"hackerspace","adress":"125 rue du Chemin Vert 75011 Paris","marker-color":"#f00","marker-size":"small"},"geometry":{"type":"Point","coordinates":[2.38348,48.8627]}},{"type":"Feature","properties":{"id":"80","name":"La vache libre","website":"http:\/\/la-vache-libre.org\/","twitter":"https:\/\/twitter.com\/lavachelibre","facebook":"https:\/\/www.facebook.com\/LaVacheLibre","type_lab":"hackerspace","adress":"nc\/Strasbourg","marker-color":"#f00","marker-size":"small"},"geometry":{"type":"Point","coordinates":[7.74788,48.5831]}},{"type":"Feature","properties":{"id":"81","name":"Lab Sud","website":"http:\/\/www.labsud.org\/nous-con","twitter":"https:\/\/twitter.com\/LabSud","facebook":"","type_lab":"fablab","adress":"Cowork'in Montpellier - 19 rue de l'\u00e9cole de Droit 34000 Montpellier","marker-color":"#f00","marker-size":"small"},"geometry":{"type":"Point","coordinates":[3.86944,43.6093]}},{"type":"Feature","properties":{"id":"82","name":"LabFab","website":"http:\/\/www.labfab.fr\/","twitter":"https:\/\/twitter.com\/LabFabfr","facebook":"https:\/\/www.facebook.com\/groups\/398643486836663\/","type_lab":"fablab","adress":"19 rue hoche 35000 Rennes","marker-color":"#f00","marker-size":"small"},"geometry":{"type":"Point","coordinates":[-1.67747,48.1146]}},{"type":"Feature","properties":{"id":"83","name":"Labo d'Aix-p\u00e9rimentation - La ","website":"http:\/\/labaixbidouille.com\/fab","twitter":"https:\/\/twitter.com\/LabAixBidouille","facebook":"https:\/\/www.facebook.com\/LabAixBidouille","type_lab":"Educ","adress":"431 Avenue Gaston Berger 13625 Aix-en-Provence cedex 1","marker-color":"#f00","marker-size":"small"},"geometry":{"type":"Point","coordinates":[5.45121,43.5146]}},{"type":"Feature","properties":{"id":"84","name":"Labom\u00e9dia","website":"https:\/\/labomedia.net\/","twitter":"https:\/\/twitter.com\/labomedia","facebook":"https:\/\/www.facebook.com\/labomedia","type_lab":"fablab","adress":"108 rue de bourgagne, 45000 orl\u00e9ans","marker-color":"#f00","marker-size":"small"},"geometry":{"type":"Point","coordinates":[1.91348,47.9006]}},{"type":"Feature","properties":{"id":"85","name":"Laboratoire Ouvert Lyonnais","website":"http:\/\/labolyon.fr\/","twitter":"https:\/\/twitter.com\/LaboLyon","facebook":"","type_lab":"hackerspace","adress":"7 place Louis Chazette, Lyon","marker-color":"#f00","marker-size":"small"},"geometry":{"type":"Point","coordinates":[4.83726,45.7732]}},{"type":"Feature","properties":{"id":"86","name":"LabOVE","website":"http:\/\/www.modulcopter.org","twitter":"https:\/\/twitter.com\/modulcopter","facebook":"","type_lab":"fablab","adress":"nc \/ Poitiers","marker-color":"#f00","marker-size":"small"},"geometry":{"type":"Point","coordinates":[0.34037,46.5802]}},{"type":"Feature","properties":{"id":"87","name":"L'abscisse","website":"http:\/\/www.coagul.org","twitter":"https:\/\/twitter.com\/LUGAOC","facebook":"","type_lab":"fablab","adress":"Association COAGUL Centre social et culturel L\u00e9o Lagrange rue des prairies 21800 Quetigny","marker-color":"#f00","marker-size":"small"},"geometry":{"type":"Point","coordinates":[5.11318,47.3127]}},{"type":"Feature","properties":{"id":"88","name":"L'Ately\u00e9","website":"http:\/\/atelye.fr\/","twitter":"https:\/\/twitter.com\/atelye_","facebook":"www.facebook.com\/latelye","type_lab":"fablab","adress":"rue d'Avron 75011 Paris","marker-color":"#f00","marker-size":"small"},"geometry":{"type":"Point","coordinates":[2.40469,48.8524]}},{"type":"Feature","properties":{"id":"89","name":"Le BIB","website":"http:\/\/lebib.org","twitter":"http:\/\/twitter.com\/BIB_hackerspace","facebook":"","type_lab":"hackerspace","adress":"AFK, 7 rue Francois P\u00e9rier, Montpellier","marker-color":"#f00","marker-size":"small"},"geometry":{"type":"Point","coordinates":[3.88607,43.6054]}},{"type":"Feature","properties":{"id":"90","name":"Le Fabelier","website":"http:\/\/fabelier.org","twitter":"https:\/\/twitter.com\/fabelier","facebook":"https:\/\/www.facebook.com\/fabelier?fref=ts","type_lab":"hackerspace","adress":"Centre for Research and Interdisciplinarity (CRI) 10, rue Charles V 75004 Paris","marker-color":"#f00","marker-size":"small"},"geometry":{"type":"Point","coordinates":[2.36292,48.8531]}},{"type":"Feature","properties":{"id":"91","name":"Le Loop","website":"http:\/\/leloop.org\/","twitter":"https:\/\/twitter.com\/Le_Loop","facebook":"","type_lab":"hackerspace","adress":"20 rue de Reuilly 75012 Paris","marker-color":"#f00","marker-size":"small"},"geometry":{"type":"Point","coordinates":[2.38668,48.8477]}},{"type":"Feature","properties":{"id":"92","name":"Le Petit FabLab","website":"http:\/\/lepetitfablabdeparis.fr","twitter":"","facebook":"","type_lab":"fablab","adress":"156 rue Oberkampf 75011 Paris","marker-color":"#f00","marker-size":"small"},"geometry":{"type":"Point","coordinates":[2.38211,48.8667]}},{"type":"Feature","properties":{"id":"93","name":"Les Beaux Boulons","website":"beauxboulons.org","twitter":"https:\/\/twitter.com\/LesBeauxboulons","facebook":"https:\/\/www.facebook.com\/beauxboulons.org","type_lab":"hackerspace","adress":"nc\/Auxerre","marker-color":"#f00","marker-size":"small"},"geometry":{"type":"Point","coordinates":[3.57378,47.7982]}},{"type":"Feature","properties":{"id":"94","name":"Les Fabriques du Ponant ","website":"http:\/\/www.lespetitsdebrouilla","twitter":"https:\/\/twitter.com\/FabDuPonant","facebook":"https:\/\/www.facebook.com\/fabriquesduponant","type_lab":"fablab","adress":"Les petits d\u00e9brouillards Bretagne, 2, rue Paul Dukas \u2013 29200 Brest","marker-color":"#f00","marker-size":"small"},"geometry":{"type":"Point","coordinates":[-4.49815,48.4087]}},{"type":"Feature","properties":{"id":"95","name":"L'\u00e9tabli","website":"http:\/\/www.utl-landescotesud.f","twitter":"","facebook":"https:\/\/www.facebook.com\/utlcotesud","type_lab":"fablab","adress":"Pole Associatif R\u00e9sano-Lap\u00e8gue, rue de Moscou, Soustons, 40140","marker-color":"#f00","marker-size":"small"},"geometry":{"type":"Point","coordinates":[-1.32505,43.749]}},{"type":"Feature","properties":{"id":"96","name":"L'Etablisienne","website":"http:\/\/www.letablisienne.com\/","twitter":"https:\/\/twitter.com\/L_Etablisienne","facebook":"https:\/\/www.facebook.com\/L.Etablisienne","type_lab":"fablab","adress":"88 Boulevard de Picpus 75012 Paris","marker-color":"#f00","marker-size":"small"},"geometry":{"type":"Point","coordinates":[2.40064,48.846]}},{"type":"Feature","properties":{"id":"97","name":"LH3D fablab","website":"www.lh-fab-lab.e-monsite.com\/","twitter":"","facebook":"","type_lab":"Educ","adress":"1 Rue Dum\u00e9 d'Aplemont, Havre (Le), 76600","marker-color":"#f00","marker-size":"small"},"geometry":{"type":"Point","coordinates":[0.12416,49.4975]}},{"type":"Feature","properties":{"id":"98","name":"Limouzi Lab","website":"http:\/\/lab.limouzi.org\/","twitter":"https:\/\/twitter.com\/LimouziLab","facebook":"https:\/\/www.facebook.com\/LimouziLab","type_lab":"fablab","adress":"4 Impasse Daguerre 87100 Limoges","marker-color":"#f00","marker-size":"small"},"geometry":{"type":"Point","coordinates":[1.26731,45.8397]}},{"type":"Feature","properties":{"id":"99","name":"LivingLab de la Cit\u00e9 des Scien","website":"http:\/\/www.cite-sciences.fr\/fr","twitter":"https:\/\/twitter.com\/citedessciences","facebook":"https:\/\/www.facebook.com\/Cite.des.sciences","type_lab":"hackerspace","adress":"30, avenue Corentin-Cariou - 75019 Paris.","marker-color":"#f00","marker-size":"small"},"geometry":{"type":"Point","coordinates":[2.38706,48.896]}},{"type":"Feature","properties":{"id":"100","name":"m.e.u.h lab","website":"http:\/\/www.meuhlab.org\/","twitter":"https:\/\/twitter.com\/meuh_lab","facebook":"https:\/\/www.facebook.com\/meuh.lab","type_lab":"hackerspace","adress":"112, avenue Jean Lebas 59100 Roubaix","marker-color":"#f00","marker-size":"small"},"geometry":{"type":"Point","coordinates":[3.16507,50.695]}},{"type":"Feature","properties":{"id":"101","name":"Maker sur Seine","website":"http:\/\/www.maker-sur-seine.fr\/","twitter":"","facebook":"","type_lab":"fablab","adress":"20, rue Geoffroy l\u2019Asnier 75004 Paris","marker-color":"#f00","marker-size":"small"},"geometry":{"type":"Point","coordinates":[2.35632,48.8547]}},{"type":"Feature","properties":{"id":"102","name":"Makerspace56","website":"http:\/\/makerspace56.org","twitter":"","facebook":"","type_lab":"fablab","adress":"VIPE, Place Albert Einstein - Parc d'Innovation Bretagne Sud - 56038 Vannes","marker-color":"#f00","marker-size":"small"},"geometry":{"type":"Point","coordinates":[-2.75417,47.6423]}},{"type":"Feature","properties":{"id":"103","name":"Mutualab","website":"http:\/\/www.mutualab.org\/","twitter":"","facebook":"https:\/\/www.facebook.com\/Mutualab","type_lab":"fablab","adress":"19 rue Nicolas Leblanc, 59000 Lille","marker-color":"#f00","marker-size":"small"},"geometry":{"type":"Point","coordinates":[3.0618,50.6296]}},{"type":"Feature","properties":{"id":"104","name":"NaoHack","website":"http:\/\/naohack.org\/","twitter":"https:\/\/twitter.com\/Naohack_","facebook":"","type_lab":"hackerspace","adress":"Nantes","marker-color":"#f00","marker-size":"small"},"geometry":{"type":"Point","coordinates":[-1.55362,47.2184]}},{"type":"Feature","properties":{"id":"105","name":"Navlab","website":"http:\/\/navlab.avitys.com\/","twitter":"https:\/\/twitter.com\/NavLabAntibes","facebook":"https:\/\/www.facebook.com\/navlab","type_lab":"fablab","adress":"3 boulevard wilson, antibes","marker-color":"#f00","marker-size":"small"},"geometry":{"type":"Point","coordinates":[7.1207,43.5797]}},{"type":"Feature","properties":{"id":"106","name":"Nicelab","website":"http:\/\/blog.nicelab.org\/","twitter":"https:\/\/twitter.com\/Nicelab","facebook":"","type_lab":"hackerspace","adress":"La Friche - 1, rue Oscar II 06000 Nice","marker-color":"#f00","marker-size":"small"},"geometry":{"type":"Point","coordinates":[7.25567,43.7038]}},{"type":"Feature","properties":{"id":"107","name":"Nouvelle Fabrique","website":"http:\/\/www.nouvellefabrique.fr","twitter":"https:\/\/twitter.com\/NFabrique","facebook":"https:\/\/www.facebook.com\/NouvelleFabrique","type_lab":"fablab","adress":"104 Rue d'Aubervilliers, Paris, 75019","marker-color":"#f00","marker-size":"small"},"geometry":{"type":"Point","coordinates":[2.3686,48.8904]}},{"type":"Feature","properties":{"id":"108","name":"Nybicc","website":"http:\/\/nybi.cc\/?page_id=265","twitter":"","facebook":"","type_lab":"fablab","adress":"9 Rue d'Alsace 54140 Jarville-la-Malgrange","marker-color":"#f00","marker-size":"small"},"geometry":{"type":"Point","coordinates":[6.19976,48.6751]}},{"type":"Feature","properties":{"id":"109","name":"Open Bidouille Camp","website":"openbidouille.net","twitter":"https:\/\/twitter.com\/bidouillecamp","facebook":"https:\/\/www.facebook.com\/pages\/Open-Bidouille-Camp","type_lab":"fablab","adress":"Si\u00e8ge association OBC, 1 Rue Charles Garnier, 93400 Saint-Ouen","marker-color":"#f00","marker-size":"small"},"geometry":{"type":"Point","coordinates":[2.33912,48.9052]}},{"type":"Feature","properties":{"id":"110","name":"Open edge","website":"http:\/\/wiki.fablab.is\/wiki\/Ope","twitter":"https:\/\/twitter.com\/OpenEdge_Fr","facebook":"https:\/\/www.facebook.com\/OpenEdge.cc","type_lab":"fablab","adress":"6 avenue foch 57730 Folschvillier","marker-color":"#f00","marker-size":"small"},"geometry":{"type":"Point","coordinates":[6.68684,49.0708]}},{"type":"Feature","properties":{"id":"111","name":"Osilab","website":"http:\/\/www.osilab.org","twitter":"https:\/\/twitter.com\/osilab","facebook":"https:\/\/www.facebook.com\/osilab.org","type_lab":"hackerspace","adress":"157 avenue de Dunkerque, 59000 Lille","marker-color":"#f00","marker-size":"small"},"geometry":{"type":"Point","coordinates":[3.02916,50.6354]}},{"type":"Feature","properties":{"id":"112","name":"Parthlab","website":"http:\/\/parthlab.cc-parthenay.f","twitter":"","facebook":"","type_lab":"fablab","adress":"5 Rue Jean Mac\u00e9, Parthenay, 79200","marker-color":"#f00","marker-size":"small"},"geometry":{"type":"Point","coordinates":[-0.24937,46.6466]}},{"type":"Feature","properties":{"id":"113","name":"PhenixIT","website":"http:\/\/hackerspaces.org\/wiki\/P","twitter":"","facebook":"","type_lab":"hackerspace","adress":"94 rue de la Baste 77000 Vaux-le-P\u00e9nil","marker-color":"#f00","marker-size":"small"},"geometry":{"type":"Point","coordinates":[2.67354,48.5207]}},{"type":"Feature","properties":{"id":"114","name":"Photonic FabLab","website":"http:\/\/www.institutoptique.fr\/","twitter":"","facebook":"","type_lab":"Educ","adress":"B\u00e2timent 503, Rue du Belv\u00e9d\u00e8re, Orsay","marker-color":"#f00","marker-size":"small"},"geometry":{"type":"Point","coordinates":[2.17556,48.7067]}},{"type":"Feature","properties":{"id":"115","name":"PiNG","website":"http:\/\/www.pingbase.net\/","twitter":"https:\/\/twitter.com\/assoPiNG","facebook":"https:\/\/www.facebook.com\/AssociationPiNG","type_lab":"medialab","adress":"38 Breil, 44200 NANTES","marker-color":"#f00","marker-size":"small"},"geometry":{"type":"Point","coordinates":[-1.54113,47.2015]}},{"type":"Feature","properties":{"id":"116","name":"Plascilab (Plan\u00e8te Sciences)","website":"http:\/\/www.plascilab.com\/","twitter":"","facebook":"","type_lab":"hackerspace","adress":"16 place Jacques Brel (MJC) 91130 Ris Orangis","marker-color":"#f00","marker-size":"small"},"geometry":{"type":"Point","coordinates":[2.41045,48.6457]}},{"type":"Feature","properties":{"id":"117","name":"Platform C","website":"http:\/\/www.plateforme-c.org\/","twitter":"","facebook":"","type_lab":"fablab","adress":"Hangar 30, quai des Antilles 44200 Nantes","marker-color":"#f00","marker-size":"small"},"geometry":{"type":"Point","coordinates":[-1.57392,47.2006]}},{"type":"Feature","properties":{"id":"118","name":"PMClab","website":"http:\/\/www.pmclab.fr\/","twitter":"https:\/\/twitter.com\/PMCLab","facebook":"","type_lab":"hackerspace","adress":"4 Place Jussieu, 75005 Paris ","marker-color":"#f00","marker-size":"small"},"geometry":{"type":"Point","coordinates":[2.35485,48.8464]}},{"type":"Feature","properties":{"id":"119","name":"Rigid'Art FabLab #LR","website":"http:\/\/www.rigid-art.fr\/","twitter":"https:\/\/twitter.com\/RigidArtFablab","facebook":"https:\/\/www.facebook.com\/fablab17","type_lab":"fablab","adress":"La Rochelle","marker-color":"#f00","marker-size":"small"},"geometry":{"type":"Point","coordinates":[-1.15114,46.1603]}},{"type":"Feature","properties":{"id":"120","name":"Rurallab","website":"http:\/\/www.rurallab.org\/","twitter":"https:\/\/twitter.com\/rurallab36","facebook":"","type_lab":"fablab","adress":"1 Rue de l\u2019ecole 36220 N\u00e9ons sur Creuse","marker-color":"#f00","marker-size":"small"},"geometry":{"type":"Point","coordinates":[0.92944,46.7459]}},{"type":"Feature","properties":{"id":"121","name":"Smart Materials","website":"http:\/\/fablab.ifts.net\/","twitter":"","facebook":"","type_lab":"fablab","adress":"Boulevard Jean Delautre, Charleville-M\u00e9zi\u00e8res, 08000","marker-color":"#f00","marker-size":"small"},"geometry":{"type":"Point","coordinates":[4.71786,49.7397]}},{"type":"Feature","properties":{"id":"122","name":"SmartLab aka dumbLab","website":"http:\/\/www.smartlab.so","twitter":"","facebook":"","type_lab":"hackerspace","adress":"nc\/Limoges","marker-color":"#f00","marker-size":"small"},"geometry":{"type":"Point","coordinates":[1.26111,45.8336]}},{"type":"Feature","properties":{"id":"123","name":"TechlabLR","website":"techlablr.fr","twitter":"https:\/\/twitter.com\/techlablr","facebook":"https:\/\/www.facebook.com\/techlablr?fref=ts","type_lab":"fablab","adress":"49 rue Supernova, 34570 Vailhauqu\u00e8s","marker-color":"#f00","marker-size":"small"},"geometry":{"type":"Point","coordinates":[3.71799,43.6723]}},{"type":"Feature","properties":{"id":"124","name":"Technistub","website":"http:\/\/www.technistub.fr","twitter":"https:\/\/twitter.com\/TechniStub","facebook":"","type_lab":"hackerspace","adress":"130, rue de la Mer Rouge \u2013 68200 Mulhouse","marker-color":"#f00","marker-size":"small"},"geometry":{"type":"Point","coordinates":[7.29373,47.7441]}},{"type":"Feature","properties":{"id":"125","name":"T\u00e9l\u00e9fab - Rennes et Brest","website":"http:\/\/telefab.fr\/","twitter":"","facebook":"","type_lab":"Educ","adress":"655 Avenue du Technopole 29200 Brest","marker-color":"#f00","marker-size":"small"},"geometry":{"type":"Point","coordinates":[-4.57017,48.3587]}},{"type":"Feature","properties":{"id":"126","name":"Tetalab","website":"http:\/\/tetalab.org","twitter":"https:\/\/twitter.com\/tetalab","facebook":"","type_lab":"hackerspace","adress":"Mixart Myrys, 12 rue Ferdinand Lasalle, Toulouse","marker-color":"#f00","marker-size":"small"},"geometry":{"type":"Point","coordinates":[1.44421,43.6046]}},{"type":"Feature","properties":{"id":"127","name":"ThiLab","website":"http:\/\/techtic-co.eu\/thilab\/","twitter":"","facebook":"","type_lab":"fablab","adress":"Association TechTic & Co - 2 boulevard Henri Becquerel 57970 Yutz","marker-color":"#f00","marker-size":"small"},"geometry":{"type":"Point","coordinates":[6.17174,49.3491]}},{"type":"Feature","properties":{"id":"128","name":"Thinging Orange labs","website":"http:\/\/lecollectif.orange.fr\/a","twitter":"https:\/\/twitter.com\/_lecollectif","facebook":"","type_lab":"fablab","adress":"28, chemin du Vieux Ch\u00eane, 38240 Meylan","marker-color":"#f00","marker-size":"small"},"geometry":{"type":"Point","coordinates":[5.79506,45.2099]}},{"type":"Feature","properties":{"id":"129","name":"Tyfab","website":"http:\/\/tyfab.fr\/","twitter":"https:\/\/twitter.com\/TyFabBrest","facebook":"","type_lab":"fablab","adress":"24 rue de Gast\u00e9 29200 Brest","marker-color":"#f00","marker-size":"small"},"geometry":{"type":"Point","coordinates":[-4.47584,48.3907]}},{"type":"Feature","properties":{"id":"130","name":"Usinette","website":"http:\/\/usinette.org\/","twitter":"","facebook":"","type_lab":"hackerspace","adress":"\/tmp\/lab sous la Maison Pour Tous  30 avenue de Newburn  94600 Choisy le Roi","marker-color":"#f00","marker-size":"small"},"geometry":{"type":"Point","coordinates":[2.41144,48.7551]}},{"type":"Feature","properties":{"id":"131","name":"WoMa Paris","website":"http:\/\/www.woma.fr\/fr","twitter":"https:\/\/twitter.com\/WoMa_Paris","facebook":"","type_lab":"fablab","adress":"15 bis rue L\u00e9on Giraud 75019 Paris","marker-color":"#f00","marker-size":"small"},"geometry":{"type":"Point","coordinates":[2.38251,48.8878]}},{"type":"Feature","properties":{"id":"132","name":"Usinette","website":"http:\/\/usinette.org\/","twitter":"","facebook":"","type_lab":"hackerspace","adress":"\/tmp\/lab sous la Maison Pour Tous  30 avenue de Newburn  94600 Choisy le Roi","marker-color":"#f00","marker-size":"small"},"geometry":{"type":"Point","coordinates":[2.41144,48.7551]}},{"type":"Feature","properties":{"id":"133","name":"WoMa Paris","website":"http:\/\/www.woma.fr\/fr","twitter":"https:\/\/twitter.com\/WoMa_Paris","facebook":"","type_lab":"fablab","adress":"15 bis rue L\u00e9on Giraud 75019 Paris","marker-color":"#f00","marker-size":"small"},"geometry":{"type":"Point","coordinates":[2.38251,48.8878]}},{"type":"Feature","properties":{"id":"134","name":"Fab Lab Ensimag","website":"http:\/\/fablab.ensimag.fr\/index","twitter":"","facebook":"","type_lab":"Educ","adress":"681, rue de la Passerelle, 38400 Saint-Martin-d'H\u00e8res","marker-color":"#f00","marker-size":"small"},"geometry":{"type":"Point","coordinates":[5.76829,45.1934]}},{"type":"Feature","properties":{"id":"135","name":"Fab Lab Afghanistan","website":"http:\/\/www.fablab.af\/","twitter":"","facebook":"","type_lab":"Fablab","adress":"Jalalabad, Nangarhar","marker-color":"#f00","marker-size":"small"},"geometry":{"type":"Point","coordinates":[70.4972,34.4008]}},{"type":"Feature","properties":{"id":"136","name":"3dlab-fabcafe","website":" http:\/\/www.3dlab-fabcafe.com","twitter":"","facebook":"","type_lab":"Fablab","adress":"Costa Rica 5198, Buenos Aires","marker-color":"#f00","marker-size":"small"},"geometry":{"type":"Point","coordinates":[-58.4311,-34.5854]}},{"type":"Feature","properties":{"id":"137","name":"CMD-LAB FabLab Buenos Aires","website":"http:\/\/www.reprapargentina.com","twitter":"https:\/\/twitter.com\/FabLabBsAs","facebook":"https:\/\/www.facebook.com\/FabLabBuenosAires","type_lab":"Fablab","adress":"Buenos Aires, Pacheco de Melo 2888, Buenos Aires, 1425","marker-color":"#f00","marker-size":"small"},"geometry":{"type":"Point","coordinates":[-58.4035,-34.5856]}},{"type":"Feature","properties":{"id":"138","name":"El Reactor","website":" http:\/\/www.elreactor.com","twitter":"","facebook":"","type_lab":"Fablab","adress":"Buenos Aires, Pacheco de Melo 2888, Buenos Aires, 1425","marker-color":"#f00","marker-size":"small"},"geometry":{"type":"Point","coordinates":[-58.4035,-34.5856]}},{"type":"Feature","properties":{"id":"139","name":"FabLab MDP","website":" https:\/\/www.facebook.com\/FabL","twitter":"","facebook":" https:\/\/www.facebook.com\/FabLabMardelPlata","type_lab":"Fablab","adress":"Belgrano 3568, Mar del Plata, Buenos Aires, 7600","marker-color":"#f00","marker-size":"small"},"geometry":{"type":"Point","coordinates":[-57.5579,-37.9961]}},{"type":"Feature","properties":{"id":"140","name":"Biohacking Sydney","website":"https:\/\/groups.google.com\/foru","twitter":"","facebook":"","type_lab":"biohacklab","adress":"Sidney","marker-color":"#f00","marker-size":"small"},"geometry":{"type":"Point","coordinates":[151.207,-33.8675]}},{"type":"Feature","properties":{"id":"141","name":"FabLab Adelaide","website":"http:\/\/fablabadelaide.org.au\/","twitter":"","facebook":"https:\/\/www.facebook.com\/FabLabAdelaide","type_lab":"Fablab","adress":"39 Light Square, Adelaide, SA, 5000","marker-color":"#f00","marker-size":"small"},"geometry":{"type":"Point","coordinates":[138.592,-34.9245]}},{"type":"Feature","properties":{"id":"142","name":"FabLab WA","website":"http:\/\/www.challenger.wa.edu.a","twitter":"https:\/\/twitter.com\/dharmsworth","facebook":"","type_lab":"Educ","adress":"15 Grosvenor St, Beaconsfield, Western Australia, 6162","marker-color":"#f00","marker-size":"small"},"geometry":{"type":"Point","coordinates":[115.767,-32.0661]}},{"type":"Feature","properties":{"id":"143","name":"Ars Electronica \/ Futurelab","website":"http:\/\/www.aec.at\/futurelab\/en","twitter":"","facebook":"","type_lab":"fablab","adress":"Ars Electronica Futurelab Ars Electronica Linz GmbH Ars-Electronica-Stra\u00dfe 1 4040 Linz","marker-color":"#f00","marker-size":"small"},"geometry":{"type":"Point","coordinates":[14.2843,48.3097]}},{"type":"Feature","properties":{"id":"144","name":"ESC","website":"http:\/\/esc.mur.at\/","twitter":"","facebook":"","type_lab":"fablab","adress":"esc medien kunst labor, B\u00fcrgergasse 5, 8010 Graz","marker-color":"#f00","marker-size":"small"},"geometry":{"type":"Point","coordinates":[15.4423,47.0712]}},{"type":"Feature","properties":{"id":"145","name":"Open bioLab Graz","website":"http:\/\/olga.realraum.at","twitter":"","facebook":"https:\/\/www.facebook.com\/OpenBioLabGraz\/info","type_lab":"biohacklab","adress":"Brockmanngasse 15, Graz","marker-color":"#f00","marker-size":"small"},"geometry":{"type":"Point","coordinates":[15.4506,47.0655]}},{"type":"Feature","properties":{"id":"146","name":"BUDA::lab","website":"http:\/\/www.budalab.be\/","twitter":"","facebook":"","type_lab":"Fablab","adress":"Dam 2a, Kortrijk, 8500","marker-color":"#f00","marker-size":"small"},"geometry":{"type":"Point","coordinates":[3.26394,50.8316]}},{"type":"Feature","properties":{"id":"147","name":"DIYBio Belgium","website":"http:\/\/www.diybio.be\/index.php","twitter":"","facebook":"https:\/\/www.facebook.com\/pages\/DIYbio-Belgium\/1801","type_lab":"biohacklab","adress":"rue du progr\u00e8s 4, boite 9, 1400 Nivelles","marker-color":"#f00","marker-size":"small"},"geometry":{"type":"Point","coordinates":[4.33086,50.5887]}},{"type":"Feature","properties":{"id":"148","name":"FabLab Genk","website":"http:\/\/www.fablabgenk.be\/","twitter":"","facebook":"","type_lab":"Fablab","adress":"Houtparklaan 1, Genk, Flanders, 3600","marker-color":"#f00","marker-size":"small"},"geometry":{"type":"Point","coordinates":[5.48247,50.9827]}},{"type":"Feature","properties":{"id":"149","name":"Smart Fab Lab","website":"https:\/\/www.facebook.com\/smart","twitter":"","facebook":"","type_lab":"Fablab","adress":"Sofia Center, 1 Hristo Smirnenski Street, Sofia, 1046","marker-color":"#f00","marker-size":"small"},"geometry":{"type":"Point","coordinates":[23.3342,42.6948]}},{"type":"Feature","properties":{"id":"150","name":"7elektron","website":"http:\/\/www.7elektron.com.br\/","twitter":"","facebook":"","type_lab":"Fablab","adress":"Rua Joaquim Zenir Leite, 406 Paraiso, Belo Horizonte, Minas Gerais, 30270420","marker-color":"#f00","marker-size":"small"},"geometry":{"type":"Point","coordinates":[-43.9024,-19.9219]}},{"type":"Feature","properties":{"id":"151","name":"FabLab Bel\u00e9m","website":"https:\/\/www.facebook.com\/group","twitter":"","facebook":"https:\/\/www.facebook.com\/groups\/161326217395967","type_lab":"Fablab","adress":"Travessa Benjamin Constant, 1337, Bel\u00e9m, Par\u00e1, 66035-060","marker-color":"#f00","marker-size":"small"},"geometry":{"type":"Point","coordinates":[-48.4885,-1.45364]}},{"type":"Feature","properties":{"id":"152","name":"FabLab Brasil","website":"http:\/\/www.fablabbrasil.org\/","twitter":"","facebook":"","type_lab":"Fablab","adress":"Pra\u00e7a Gen. Craveiro Lopes, 19 Sobreloja 1, S\u00e3o Paulo, 01319-070","marker-color":"#f00","marker-size":"small"},"geometry":{"type":"Point","coordinates":[-46.6333,-23.5505]}},{"type":"Feature","properties":{"id":"153","name":"Garagem FabLab","website":"http:\/\/www.garagemfablab.com\/","twitter":"","facebook":"http:\/\/www.facebook.com\/garagemfablab","type_lab":"Fablab","adress":"Pra\u00e7a General Craveiro Lopes, 19 - sobreloja 01, S\u00e3o Paulo, SP, 01319-070","marker-color":"#f00","marker-size":"small"},"geometry":{"type":"Point","coordinates":[-46.6333,-23.5505]}},{"type":"Feature","properties":{"id":"154","name":"Biospace","website":"http:\/\/www.biospace.ca\/","twitter":"","facebook":"https:\/\/www.facebook.com\/groups\/336112399798146\/","type_lab":"biohacklab","adress":"2614 Bridge Street, Victoria","marker-color":"#f00","marker-size":"small"},"geometry":{"type":"Point","coordinates":[-123.373,48.4366]}},{"type":"Feature","properties":{"id":"155","name":"D\u00e8mosLab","website":"http:\/\/www.demoslab.org\/","twitter":"","facebook":"","type_lab":"Fablab","adress":"Frelighsburg (moving), Frelighsburg, Quebec, J0J1C0","marker-color":"#f00","marker-size":"small"},"geometry":{"type":"Point","coordinates":[-72.8362,45.0553]}},{"type":"Feature","properties":{"id":"156","name":"District3","website":"http:\/\/d3center.ca\/","twitter":"","facebook":"","type_lab":"Fablab","adress":"1515 St. Catherine,, EV Building W., EV 7.105, Montreal, Quebec, H3G 1M8","marker-color":"#f00","marker-size":"small"},"geometry":{"type":"Point","coordinates":[-73.5788,45.497]}},{"type":"Feature","properties":{"id":"157","name":"DIY Vancouver","website":"http:\/\/www.meetup.com\/DIYBio-V","twitter":"","facebook":"","type_lab":"biohacklab","adress":"Vancouver","marker-color":"#f00","marker-size":"small"},"geometry":{"type":"Point","coordinates":[-123.114,49.2612]}},{"type":"Feature","properties":{"id":"158","name":"DIYBio Toronto","website":"http:\/\/www.meetup.com\/DIYbio-T","twitter":"","facebook":"","type_lab":"biohacklab","adress":"Toronto","marker-color":"#f00","marker-size":"small"},"geometry":{"type":"Point","coordinates":[-79.3832,43.6532]}},{"type":"Feature","properties":{"id":"159","name":"FabLab@Marguerite","website":"http:\/\/wp.csmb.qc.ca\/fablab","twitter":"","facebook":"","type_lab":"Fablab","adress":"8700, boul. Champlain, LaSalle, Qu\u00e9bec\/Canada, H8P 3H7","marker-color":"#f00","marker-size":"small"},"geometry":{"type":"Point","coordinates":[-73.6216,45.4182]}},{"type":"Feature","properties":{"id":"160","name":"FabOutaouais","website":"http:\/\/www.agoralab.ca\/portfol","twitter":"","facebook":"https:\/\/www.facebook.com\/Fablab.Outaouais","type_lab":"Fablab","adress":"820 Boul. de la Gappe, Gatineau, Qu\u00e9bec , J8T 7T7","marker-color":"#f00","marker-size":"small"},"geometry":{"type":"Point","coordinates":[-75.6844,45.4829]}},{"type":"Feature","properties":{"id":"161","name":"FabLab Bern","website":"https:\/\/foursquare.com\/v\/fabla","twitter":"","facebook":"","type_lab":"Fablab","adress":"Eigerstrasse 12, Berne, Canton of Bern, 3007","marker-color":"#f00","marker-size":"small"},"geometry":{"type":"Point","coordinates":[7.43281,46.9404]}},{"type":"Feature","properties":{"id":"162","name":"FabLab Z\u00fcrich","website":"http:\/\/zurich.fablab.ch\/","twitter":"","facebook":"https:\/\/www.facebook.com\/fablabzurich","type_lab":"Fablab","adress":"Zimmerlistrasse 6, Zurich, Canton of Zurich, 8004","marker-color":"#f00","marker-size":"small"},"geometry":{"type":"Point","coordinates":[8.51006,47.3839]}},{"type":"Feature","properties":{"id":"163","name":"Fixme","website":"https:\/\/fixme.ch\/","twitter":"https:\/\/twitter.com\/_fixme","facebook":"www.facebook.com\/fixmehackerspace","type_lab":"fablab","adress":"Rue de Gen\u00e8ve 79 1004 Lausanne","marker-color":"#f00","marker-size":"small"},"geometry":{"type":"Point","coordinates":[6.61384,46.5247]}},{"type":"Feature","properties":{"id":"164","name":"Hackteria","website":"http:\/\/hackteria.org\/","twitter":"","facebook":"","type_lab":"biohacklab","adress":"g-60, rue de Gen\u00e8vre 60, Lausanne","marker-color":"#f00","marker-size":"small"},"geometry":{"type":"Point","coordinates":[6.61822,46.5242]}},{"type":"Feature","properties":{"id":"165","name":"L'\u00e9prouvette","website":"http:\/\/www3.unil.ch\/wpmu\/media","twitter":"","facebook":"","type_lab":"Educ","adress":"Universit\u00e9 de Lausanne, Interface sciences-soci\u00e9t\u00e9, l\u2019Eprouvette, b\u00e2timent Amphip\u00f4le, bureau 303.1, ","marker-color":"#f00","marker-size":"small"},"geometry":{"type":"Point","coordinates":[6.57391,46.5223]}},{"type":"Feature","properties":{"id":"166","name":"FabLab Gezhi","website":"https:\/\/www.fablabs.io\/fablabg","twitter":"","facebook":"","type_lab":"Fablab","adress":"Gezhi High School, 66 Guangxi North Road, Shanghai, 200001","marker-color":"#f00","marker-size":"small"},"geometry":{"type":"Point","coordinates":[121.478,31.2361]}},{"type":"Feature","properties":{"id":"167","name":"FabLab Santiago","website":"http:\/\/fablabsantiago.org\/web\/","twitter":"","facebook":"","type_lab":"Fablab","adress":"Condell 1097 L2, Providencia, Santiago, Santiago Metropolitan Region, 7501376","marker-color":"#f00","marker-size":"small"},"geometry":{"type":"Point","coordinates":[-70.6264,-33.4449]}},{"type":"Feature","properties":{"id":"168","name":"FabLab Universidad de Chile","website":"http:\/\/www.fablab.uchile.cl\/","twitter":"","facebook":"","type_lab":"Educ","adress":"Av. Beauchef \/ Av. Rondizzoni, Santiago, Santiago Metropolitan Region, 8370456","marker-color":"#f00","marker-size":"small"},"geometry":{"type":"Point","coordinates":[-70.6639,-33.4706]}},{"type":"Feature","properties":{"id":"169","name":"ActivSpaces","website":"http:\/\/activspaces.com\/","twitter":"https:\/\/twitter.com\/activspaces","facebook":"https:\/\/www.facebook.com\/ActivSpaces\/info","type_lab":"Fablab","adress":"Fakoship Plaza, Bu\u00e9a","marker-color":"#f00","marker-size":"small"},"geometry":{"type":"Point","coordinates":[9.23478,4.15408]}},{"type":"Feature","properties":{"id":"170","name":"FabLab Bogot\u00e1","website":"http:\/\/www.fablabbogota.com\/","twitter":"","facebook":"","type_lab":"Fablab","adress":"Bogota, Cll 63 No. 3 09, Bogota, Cundinamarca","marker-color":"#f00","marker-size":"small"},"geometry":{"type":"Point","coordinates":[-74.1352,4.70281]}},{"type":"Feature","properties":{"id":"171","name":"FabLab Unal Medell\u00edn","website":"http:\/\/fablabunalmed.blogspot.","twitter":"","facebook":"http:\/\/www.facebook.com\/FabLabUnalMedellin","type_lab":"Educ","adress":"Universidad Nacional de Colombia sede Medellin, calle 59A No 63 - 20, Medellin, Antioquia","marker-color":"#f00","marker-size":"small"},"geometry":{"type":"Point","coordinates":[-75.5789,6.25968]}},{"type":"Feature","properties":{"id":"172","name":"Digital Laboratory","website":"http:\/\/dl.avu.cz\/","twitter":"","facebook":"","type_lab":"Educ","adress":"Digit\u00e1ln\u00ed laborato? AVU v Praze U Akademie 4, Praha 7","marker-color":"#f00","marker-size":"small"},"geometry":{"type":"Point","coordinates":[14.4246,50.1027]}},{"type":"Feature","properties":{"id":"173","name":"ProjectBiolab (brmlab)","website":"http:\/\/brmlab.cz\/project\/biola","twitter":"","facebook":"https:\/\/www.facebook.com\/brmlab\/info","type_lab":"biohacklab","adress":"Bubenska 1, 17000 Praha","marker-color":"#f00","marker-size":"small"},"geometry":{"type":"Point","coordinates":[14.4366,50.0982]}},{"type":"Feature","properties":{"id":"174","name":"Biogarage","website":"http:\/\/biogarage.de\/","twitter":"","facebook":"","type_lab":"biohacklab","adress":"Franz-Xaver-Schm\u00e4dl-Strasse 4 86956 Schongau","marker-color":"#f00","marker-size":"small"},"geometry":{"type":"Point","coordinates":[10.8908,47.8163]}},{"type":"Feature","properties":{"id":"175","name":"DingFabrik","website":"http:\/\/dingfabrik.de\/","twitter":"","facebook":"","type_lab":"fablab","adress":"Erzbergerplatz 9 50733 K\u00f6ln","marker-color":"#f00","marker-size":"small"},"geometry":{"type":"Point","coordinates":[6.95151,50.967]}},{"type":"Feature","properties":{"id":"176","name":"Dock","website":"http:\/\/www.sommercampworkstati","twitter":"","facebook":"","type_lab":"fablab","adress":"DOCK e.V.c\/o Carsten Seiffarth & Carsten Stabenow, Kastanienallee 73, 10435 Berlin","marker-color":"#f00","marker-size":"small"},"geometry":{"type":"Point","coordinates":[13.4079,52.5359]}},{"type":"Feature","properties":{"id":"177","name":"eigenbaukombinat","website":"http:\/\/eigenbaukombinat.de\/","twitter":"","facebook":"","type_lab":"fablab","adress":"Julius-Ebeling-Stra\u00dfe 9 6112 Halle","marker-color":"#f00","marker-size":"small"},"geometry":{"type":"Point","coordinates":[11.9855,51.4667]}},{"type":"Feature","properties":{"id":"178","name":"FabLab Aachen","website":"http:\/\/hci.rwth-aachen.de\/","twitter":"","facebook":"","type_lab":"fablab","adress":"RWTH Aachen University - Lehrstuhl Informatik 10 - 52056 Aachen","marker-color":"#f00","marker-size":"small"},"geometry":{"type":"Point","coordinates":[6.0593,50.7786]}},{"type":"Feature","properties":{"id":"179","name":"FabLab Berlin","website":"http:\/\/www.fablab-berlin.org\/k","twitter":"","facebook":"","type_lab":"fablab","adress":"Saarbr\u00fccker Stra\u00dfe 24 \u2013 Haus C - 10405 Berlin","marker-color":"#f00","marker-size":"small"},"geometry":{"type":"Point","coordinates":[13.4134,52.5305]}},{"type":"Feature","properties":{"id":"180","name":"FabLab Bremen","website":"http:\/\/www.fablab-bremen.org\/","twitter":"","facebook":"","type_lab":"fablab","adress":"Manteuffelstra\u00dfe 19 - 28203 Bremen","marker-color":"#f00","marker-size":"small"},"geometry":{"type":"Point","coordinates":[8.83516,53.0777]}},{"type":"Feature","properties":{"id":"181","name":"FabLab Hamburg St Pauli","website":"http:\/\/www.fablab-hamburg.org\/","twitter":"","facebook":"","type_lab":"fablab","adress":"Wohlwillstr. 43 - 20359 Hamburg","marker-color":"#f00","marker-size":"small"},"geometry":{"type":"Point","coordinates":[9.96234,53.5554]}},{"type":"Feature","properties":{"id":"182","name":"FabLab M\u00fcnchen","website":"http:\/\/www.fablab-muenchen.de\/","twitter":"https:\/\/twitter.com\/fablabmuc","facebook":"https:\/\/www.facebook.com\/FabLabMuc","type_lab":"Fablab","adress":"Gollierstra\u00dfe 70 D, Munich, Bavaria, 80339","marker-color":"#f00","marker-size":"small"},"geometry":{"type":"Point","coordinates":[11.5335,48.1365]}},{"type":"Feature","properties":{"id":"183","name":"FabLab Paderborn e.V.","website":"http:\/\/www.fablab-paderborn.de","twitter":"","facebook":"","type_lab":"Fablab","adress":"Westernmauer 12, Paderborn, 33098","marker-color":"#f00","marker-size":"small"},"geometry":{"type":"Point","coordinates":[8.74753,51.7172]}},{"type":"Feature","properties":{"id":"184","name":"FabLab-Bayreuth","website":"http:\/\/www.fablab-bayreuth.de\/","twitter":"","facebook":"","type_lab":"Fablab","adress":"Ritter-von-Eitzenberger-Stra\u00dfe 19, Bayreuth, Bavaria, 95448","marker-color":"#f00","marker-size":"small"},"geometry":{"type":"Point","coordinates":[11.6174,49.9619]}},{"type":"Feature","properties":{"id":"185","name":"FabLab-L\u00fcbeck","website":"http:\/\/www.gruendercube.de\/","twitter":"","facebook":"","type_lab":"Fablab","adress":"Seelandstra\u00dfe 5, TZL Building 4, L\u00fcbeck, Schleswig-Holstein, 23569","marker-color":"#f00","marker-size":"small"},"geometry":{"type":"Point","coordinates":[10.795,53.8989]}},{"type":"Feature","properties":{"id":"186","name":"FAU FabLab","website":"https:\/\/fablab.fau.de\/","twitter":"","facebook":"","type_lab":"fablab","adress":"Lehrstuhl f\u00fcr Informatik 3 - Martensstra\u00dfe 3 - 91058 Erlangen","marker-color":"#f00","marker-size":"small"},"geometry":{"type":"Point","coordinates":[11.027,49.5738]}},{"type":"Feature","properties":{"id":"187","name":"Hochschule Ruhr West","website":"http:\/\/www.hochschule-ruhr-wes","twitter":"","facebook":"","type_lab":"Educ","adress":"Campus Bottrop - Tannenstra\u00dfe 43 - 46240 Bottrop","marker-color":"#f00","marker-size":"small"},"geometry":{"type":"Point","coordinates":[6.94334,51.5394]}},{"type":"Feature","properties":{"id":"188","name":"Lab3","website":"http:\/\/interface.khm.de\/","twitter":"","facebook":"","type_lab":"Educ","adress":"Academy of Media Arts Cologne, Peter-Welter-Platz 2, 50676 K\u00f6ln","marker-color":"#f00","marker-size":"small"},"geometry":{"type":"Point","coordinates":[6.962,50.934]}},{"type":"Feature","properties":{"id":"189","name":"NK","website":"http:\/\/www.nkprojekt.de\/","twitter":"","facebook":"","type_lab":"fablab","adress":"Elsen Strasse,52 12059 Berlin","marker-color":"#f00","marker-size":"small"},"geometry":{"type":"Point","coordinates":[13.4494,52.4856]}},{"type":"Feature","properties":{"id":"190","name":"WISSENSCHAFTSLADEN","website":"http:\/\/www.wissenschaftsladen-","twitter":"","facebook":"","type_lab":"fablab","adress":"Haus 1 - Friedrich-Engels Strasse 22 -14473 Potsdam","marker-color":"#f00","marker-size":"small"},"geometry":{"type":"Point","coordinates":[13.0769,52.3894]}},{"type":"Feature","properties":{"id":"191","name":"ZKM","website":"http:\/\/on1.zkm.de","twitter":"","facebook":"https:\/\/www.facebook.com\/zkmkarlsruhe","type_lab":"Art","adress":"Lorenzstra\u00dfe 19 76135 Karlsruhe","marker-color":"#f00","marker-size":"small"},"geometry":{"type":"Point","coordinates":[8.38317,49.0018]}},{"type":"Feature","properties":{"id":"192","name":"Biologigaragen","website":"http:\/\/biologigaragen.org\/","twitter":"https:\/\/twitter.com\/BiologiGaragen","facebook":"https:\/\/www.facebook.com\/pages\/Biologigaragen\/1748","type_lab":"biohacklab","adress":"H. C. \u00d8rsteds Vej 5, 1879 Frederiksberg C","marker-color":"#f00","marker-size":"small"},"geometry":{"type":"Point","coordinates":[12.5456,55.6763]}},{"type":"Feature","properties":{"id":"193","name":"Copenhagen Fablab","website":"http:\/\/www.kulturvalby.dk\/fabl","twitter":"","facebook":"","type_lab":"Fablab","adress":"Valby Kulturhus, Copenhagen Fablab, Valg\u00e5rdsvej 4-8, Valby, 2500","marker-color":"#f00","marker-size":"small"},"geometry":{"type":"Point","coordinates":[12.5185,55.661]}},{"type":"Feature","properties":{"id":"194","name":"FabLab Innovation","website":"http:\/\/www.fablabinnovation.dk","twitter":"https:\/\/twitter.com\/FabLabInno","facebook":"https:\/\/www.facebook.com\/FabLabInno","type_lab":"Fablab","adress":"Sverigesgade 5, 3th floor, Odense, 5000","marker-color":"#f00","marker-size":"small"},"geometry":{"type":"Point","coordinates":[10.4033,55.4098]}},{"type":"Feature","properties":{"id":"195","name":"FabLab TI","website":"http:\/\/instagram.com\/opfindnu","twitter":"","facebook":"https:\/\/www.facebook.com\/fablabti","type_lab":"Fablab","adress":"K\u00f8benhavn, Gregersensvej 1, K\u00f8benhavn","marker-color":"#f00","marker-size":"small"},"geometry":{"type":"Point","coordinates":[12.5683,55.6761]}},{"type":"Feature","properties":{"id":"196","name":"Illutron","website":"http:\/\/www.illutron.dk\/","twitter":"","facebook":"","type_lab":"fablab","adress":"Teglholmens \u00d8stkaj 43 2450 SV","marker-color":"#f00","marker-size":"small"},"geometry":{"type":"Point","coordinates":[12.5528,55.6478]}},{"type":"Feature","properties":{"id":"197","name":"Labitat","website":"https:\/\/labitat.dk\/index.php\/M","twitter":"https:\/\/twitter.com\/labitat_dk","facebook":"","type_lab":"hackerspace","adress":"H. C. \u00d8rsteds Vej 5","marker-color":"#f00","marker-size":"small"},"geometry":{"type":"Point","coordinates":[12.5456,55.6763]}},{"type":"Feature","properties":{"id":"198","name":"FabLab Egypt","website":"http:\/\/www.fablab-egypt.com\/","twitter":"https:\/\/twitter.com\/fablabegypt","facebook":"https:\/\/www.facebook.com\/fablab.egypt","type_lab":"Fablab","adress":"10 Abdulrahman El-Rafei (infront of Shooting club gate #5) St., from Makkah St., Dokki, Giza","marker-color":"#f00","marker-size":"small"},"geometry":{"type":"Point","coordinates":[31.2089,30.0131]}},{"type":"Feature","properties":{"id":"199","name":"icecairo","website":"http:\/\/www.icecairo.com\/fab-la","twitter":"","facebook":"","type_lab":"Fablab","adress":"32 Sabri Abo Alam Street, 1st floor, apartment 8, Downtown, Cairo, 11111","marker-color":"#f00","marker-size":"small"},"geometry":{"type":"Point","coordinates":[31.246,30.0565]}},{"type":"Feature","properties":{"id":"200","name":"Beach Lab Sitges","website":" http:\/\/fablabsitges.org","twitter":" http:\/\/twitter.com\/fablabsitges","facebook":" http:\/\/www.facebook.com\/fablabsitges","type_lab":"Fablab","adress":"Passeig de la Ribera 46, Sitges, Catalonia, 08870","marker-color":"#f00","marker-size":"small"},"geometry":{"type":"Point","coordinates":[1.80673,41.2346]}},{"type":"Feature","properties":{"id":"201","name":"Citilab","website":"http:\/\/citilab.eu\/","twitter":"","facebook":"","type_lab":"medialab","adress":"Pl. Can Suris, s\/n 08940 Cornell\u00e0","marker-color":"#f00","marker-size":"small"},"geometry":{"type":"Point","coordinates":[2.07072,41.3574]}},{"type":"Feature","properties":{"id":"202","name":"DenokInn Basque FabLab","website":"http:\/\/www.denokinn.eu\/","twitter":"","facebook":"","type_lab":"Fablab","adress":"Santurtzi ( Antes Bermeo), Basque Country, 48370","marker-color":"#f00","marker-size":"small"},"geometry":{"type":"Point","coordinates":[-2.72698,43.4188]}},{"type":"Feature","properties":{"id":"203","name":"DEUSTO FabLab","website":"https:\/\/www.fablabs.io\/deustof","twitter":"","facebook":"","type_lab":"Fablab","adress":"Avda. Universidades, 24, Bilbao, Vizcaya, 48007","marker-color":"#f00","marker-size":"small"},"geometry":{"type":"Point","coordinates":[-2.93716,43.2703]}},{"type":"Feature","properties":{"id":"204","name":"FabLab Alicante","website":" https:\/\/plus.google.com\/u\/0\/1","twitter":" https:\/\/twitter.com\/FabLabALC","facebook":" https:\/\/www.facebook.com\/fablabalicante","type_lab":"Fablab","adress":"Ctra. San Vicente del Raspeig, s\/n, San Vicente del Raspeig, Alicante, 03690","marker-color":"#f00","marker-size":"small"},"geometry":{"type":"Point","coordinates":[-0.513932,38.3879]}},{"type":"Feature","properties":{"id":"205","name":"fabLAB Asturias","website":" http:\/\/www.laboralcentrodeart","twitter":"","facebook":"","type_lab":"Fablab","adress":"LABoral Centro de Arte y Creaci\u00f3n Industrial, Los Prados 121, Gij\u00f3n, Principality of Asturias, 33394","marker-color":"#f00","marker-size":"small"},"geometry":{"type":"Point","coordinates":[-5.61171,43.5245]}},{"type":"Feature","properties":{"id":"206","name":"FabLab BCN","website":" http:\/\/fablab.fikket.com\/","twitter":" http:\/\/twitter.com\/fablabbcn","facebook":" https:\/\/www.facebook.com\/FabLab.BCN","type_lab":"Fablab","adress":"Carrer de Pujades, 102, Barcelona, Catalonia, 08005","marker-color":"#f00","marker-size":"small"},"geometry":{"type":"Point","coordinates":[2.19429,41.3967]}},{"type":"Feature","properties":{"id":"207","name":"FabLab Leon","website":"http:\/\/fablableon.blogspot.fr","twitter":" https:\/\/twitter.com\/FabLabLeon","facebook":" https:\/\/www.facebook.com\/FabLabLeon","type_lab":"Fablab","adress":"Pol\u00edgono Industrial de Onzonilla Fase 2, Parcela M-24, Ribaseca (Le\u00f3n), Castile and Le\u00f3n, 24391","marker-color":"#f00","marker-size":"small"},"geometry":{"type":"Point","coordinates":[-5.60124,42.537]}},{"type":"Feature","properties":{"id":"208","name":"FabLab Madrid-CEU","website":" http:\/\/fablabceu.wordpress.co","twitter":"","facebook":"","type_lab":"Educ","adress":"Escuela Polit\u00e9cnica Superior, Universidad CEU San Pablo , Campus de Monteprincipe, Boadilla del Mont","marker-color":"#f00","marker-size":"small"},"geometry":{"type":"Point","coordinates":[-3.83627,40.3996]}},{"type":"Feature","properties":{"id":"209","name":"FabLab Sevilla","website":" http:\/\/fablabsevilla.us.es","twitter":" https:\/\/twitter.com\/fablabsevilla","facebook":" https:\/\/www.facebook.com\/sevillafablab","type_lab":"Educ","adress":" Escuela Tecnica Superior de Arquitectura Universidad de Sevilla","marker-color":"#f00","marker-size":"small"},"geometry":{"type":"Point","coordinates":[-5.98638,37.3624]}},{"type":"Feature","properties":{"id":"210","name":"FabLab Tenerife","website":"http:\/\/fablabtenerife.com\/","twitter":"","facebook":"https:\/\/www.facebook.com\/FabLabTenerife","type_lab":"Fablab","adress":"Santa Cruz de Tenerife, Canary Islands, 38002","marker-color":"#f00","marker-size":"small"},"geometry":{"type":"Point","coordinates":[-16.25,28.4696]}},{"type":"Feature","properties":{"id":"211","name":"FabLab Valencia","website":" http:\/\/fablab.upv.es","twitter":" https:\/\/twitter.com\/fablabvalencia","facebook":"","type_lab":"Fablab","adress":"cno. de vera s\/n Edif. 8G bajo, Valencia, Valencian Community, 46022","marker-color":"#f00","marker-size":"small"},"geometry":{"type":"Point","coordinates":[-0.332278,39.4828]}},{"type":"Feature","properties":{"id":"212","name":"Hangar","website":"http:\/\/hangar.org\/","twitter":"https:\/\/twitter.com\/HangarBCN","facebook":"https:\/\/www.facebook.com\/hangar.centredeproduccio","type_lab":"Art","adress":"Fundaci\u00f3 AAVC Hangar  Emilia Coranty 16 08018 Barcelona","marker-color":"#f00","marker-size":"small"},"geometry":{"type":"Point","coordinates":[2.1917,41.4029]}},{"type":"Feature","properties":{"id":"213","name":"MADE Makerspace Barcelona","website":" http:\/\/www.made-bcn.org","twitter":"","facebook":"","type_lab":"Fablab","adress":"Carrer de Bail\u00e8n 11 bajos, Barcelona, Catalunya, 08037","marker-color":"#f00","marker-size":"small"},"geometry":{"type":"Point","coordinates":[2.17728,41.3918]}},{"type":"Feature","properties":{"id":"214","name":"Makespace Madrid","website":" http:\/\/wiki.makespacemadrid.o","twitter":" https:\/\/twitter.com\/@MakeSpaceMadrid","facebook":" https:\/\/www.facebook.com\/pages\/Makespace-Madrid\/4","type_lab":"Fablab","adress":"Pedro Unanue 16, Madrid, Madrid, 28045","marker-color":"#f00","marker-size":"small"},"geometry":{"type":"Point","coordinates":[-3.69458,40.4035]}},{"type":"Feature","properties":{"id":"215","name":"Medialab Prado","website":"http:\/\/medialab-prado.es\/","twitter":"https:\/\/twitter.com\/medialabprado","facebook":"https:\/\/www.facebook.com\/MedialabPradoMadrid","type_lab":"medialab","adress":"Plaza de las Letras. C\/ Alameda, 15 \u00b7 28014 Madrid","marker-color":"#f00","marker-size":"small"},"geometry":{"type":"Point","coordinates":[-3.69376,40.4108]}},{"type":"Feature","properties":{"id":"216","name":"Valldaura, Self Sufficient Lab","website":" http:\/\/www.valldaura.net\/","twitter":" https:\/\/twitter.com\/valldauralabs","facebook":" https:\/\/www.facebook.com\/valldauralabs","type_lab":"Fablab","adress":"Cerdanyola, Valldaura, Barcelona, Catalonia, 08031","marker-color":"#f00","marker-size":"small"},"geometry":{"type":"Point","coordinates":[2.15641,41.4377]}},{"type":"Feature","properties":{"id":"217","name":"iceAddis","website":"http:\/\/www.iceaddis.com\/","twitter":"https:\/\/twitter.com\/iceaddis","facebook":"https:\/\/www.facebook.com\/iceaddis","type_lab":"Fablab","adress":"P.O. Box 518, Addis-Abeba","marker-color":"#f00","marker-size":"small"},"geometry":{"type":"Point","coordinates":[38.7578,8.9806]}},{"type":"Feature","properties":{"id":"218","name":"AALTO FabLab","website":"http:\/\/mediafactory.aalto.fi\/f","twitter":"https:\/\/twitter.com\/AaltoMedia","facebook":"https:\/\/www.facebook.com\/aaltomediafactory","type_lab":"Fablab","adress":"H\u00e4meentie 135, Helsinki, Suomi, 00560","marker-color":"#f00","marker-size":"small"},"geometry":{"type":"Point","coordinates":[24.975,60.2081]}},{"type":"Feature","properties":{"id":"219","name":"Pixelache","website":"http:\/\/network.pixelache.ac\/","twitter":"","facebook":"","type_lab":"Art","adress":"Helsinki 23-25.5 ","marker-color":"#f00","marker-size":"small"},"geometry":{"type":"Point","coordinates":[24.8958,60.6112]}},{"type":"Feature","properties":{"id":"220","name":"Acces Space","website":"http:\/\/www.access-space.org\/","twitter":"https:\/\/twitter.com\/AccessSpace","facebook":"https:\/\/www.facebook.com\/accessspace","type_lab":"fablab","adress":"Access Space Unit 1, AVEC Building, 3-7 Sidney Street, Sheffield S1 4RG","marker-color":"#f00","marker-size":"small"},"geometry":{"type":"Point","coordinates":[-1.46869,53.3753]}},{"type":"Feature","properties":{"id":"221","name":"Buildbrighton","website":"http:\/\/www.buildbrighton.com\/","twitter":"","facebook":"","type_lab":"fablab","adress":"Rodhus Studios (back entrance) - Freehold Terrace -Brighton","marker-color":"#f00","marker-size":"small"},"geometry":{"type":"Point","coordinates":[-0.12707,50.8382]}},{"type":"Feature","properties":{"id":"222","name":"CultureLab","website":"http:\/\/www.ncl.ac.uk\/culturela","twitter":"https:\/\/twitter.com\/culturelabncl","facebook":"","type_lab":"Educ","adress":"Newcastle University, Grand Assembly Rooms, King\u2019s Walk, Newcastle upon Tyne, NE1 7RU","marker-color":"#f00","marker-size":"small"},"geometry":{"type":"Point","coordinates":[-1.61499,54.9793]}},{"type":"Feature","properties":{"id":"223","name":"DIYBio London","website":"https:\/\/groups.google.com\/foru","twitter":"","facebook":"","type_lab":"biohacklab","adress":"Londres","marker-color":"#f00","marker-size":"small"},"geometry":{"type":"Point","coordinates":[-0.125487,51.5085]}},{"type":"Feature","properties":{"id":"224","name":"DIYBIOMCR","website":"http:\/\/diybio.madlab.org.uk\/","twitter":"","facebook":"","type_lab":"biohacklab","adress":"36-40 Edge Street, Manchester M4 1HN  ","marker-color":"#f00","marker-size":"small"},"geometry":{"type":"Point","coordinates":[-2,53]}},{"type":"Feature","properties":{"id":"225","name":"FabLab Airedale ","website":"http:\/\/fablabairedale.org\/","twitter":"","facebook":"","type_lab":"fablab","adress":"Unit 24 Dalton Mill-Dalton Lane Keighley","marker-color":"#f00","marker-size":"small"},"geometry":{"type":"Point","coordinates":[-1.89397,53.8695]}},{"type":"Feature","properties":{"id":"226","name":"FabLab Belfast, Ashton Centre","website":"http:\/\/www.fablabni.com\/","twitter":"","facebook":"","type_lab":"Fablab","adress":"Ashton Community Trust , 5 Churchill Street , Belfast, BT15 2BP","marker-color":"#f00","marker-size":"small"},"geometry":{"type":"Point","coordinates":[-5.93448,54.6095]}},{"type":"Feature","properties":{"id":"227","name":"FabLab Brighton","website":"http:\/\/fablabbrighton.org\/","twitter":"https:\/\/twitter.com\/FabLabBrighton","facebook":"","type_lab":"fablab","adress":"PO Rhodus 16-30 Hollingdean Road Brighton East Sussex BN2 4AA","marker-color":"#f00","marker-size":"small"},"geometry":{"type":"Point","coordinates":[-0.12707,50.8382]}},{"type":"Feature","properties":{"id":"228","name":"FabLab Manchester","website":"http:\/\/www.fablabmanchester.or","twitter":"","facebook":"","type_lab":"fablab","adress":"2 Lampwick Lane, Manchester","marker-color":"#f00","marker-size":"small"},"geometry":{"type":"Point","coordinates":[-2.22035,53.4818]}},{"type":"Feature","properties":{"id":"229","name":"FabLab Nerve Centre","website":"http:\/\/www.nervecentre.org\/pro","twitter":"","facebook":"https:\/\/www.facebook.com\/nervecentre.org","type_lab":"Fablab","adress":"7-8 Magazine Street, Derry, BT48 6HJ","marker-color":"#f00","marker-size":"small"},"geometry":{"type":"Point","coordinates":[-7.32306,54.9964]}},{"type":"Feature","properties":{"id":"230","name":"LabCulture Limited","website":"http:\/\/labculture.wordpress.co","twitter":"","facebook":"","type_lab":"Art","adress":"N\u00b01 King square, Bridport, Dorset DT6 3QE","marker-color":"#f00","marker-size":"small"},"geometry":{"type":"Point","coordinates":[-2.7554,50.7326]}},{"type":"Feature","properties":{"id":"231","name":"Rhodus","website":"http:\/\/www.rodhus.co.uk\/","twitter":"","facebook":"","type_lab":"fablab","adress":"16-30 Hollingdean Road Brighton East Sussex BN2 4AA","marker-color":"#f00","marker-size":"small"},"geometry":{"type":"Point","coordinates":[-0.12707,50.8382]}},{"type":"Feature","properties":{"id":"232","name":"Meltwater Entrepreneurial Scho","website":"http:\/\/meltwater.org\/","twitter":"https:\/\/twitter.com\/MESTghana","facebook":"","type_lab":"Educ","adress":"Aluguntugui St, Accra","marker-color":"#f00","marker-size":"small"},"geometry":{"type":"Point","coordinates":[-0.152527,5.64467]}},{"type":"Feature","properties":{"id":"233","name":"FabLab Athens","website":"http:\/\/www.fablabathens.gr\/","twitter":"https:\/\/twitter.com\/fablabathens","facebook":"https:\/\/www.facebook.com\/pages\/Fab-Lab-Athens\/3442","type_lab":"Fablab","adress":"Athens, Attica, 105 64","marker-color":"#f00","marker-size":"small"},"geometry":{"type":"Point","coordinates":[23.734,37.9787]}},{"type":"Feature","properties":{"id":"234","name":"Drugo more","website":"http:\/\/www.drugo-more.hr\/","twitter":"","facebook":"https:\/\/www.facebook.com\/pages\/Drugo-more\/31419707","type_lab":"fablab","adress":"Delta 5\/1, 51000 Rijeka","marker-color":"#f00","marker-size":"small"},"geometry":{"type":"Point","coordinates":[14.4487,45.3219]}},{"type":"Feature","properties":{"id":"235","name":"MAMA","website":"http:\/\/www.mi2.hr","twitter":"","facebook":"https:\/\/www.facebook.com\/MamaZagreb","type_lab":"fablab","adress":"Preradovi?eva 18, 10000 Zagreb","marker-color":"#f00","marker-size":"small"},"geometry":{"type":"Point","coordinates":[15.9743,45.8102]}},{"type":"Feature","properties":{"id":"236","name":"Biodisplay","website":"http:\/\/biodisplay.tyrell.hu\/","twitter":"","facebook":"","type_lab":"biohacklab","adress":"E\u00f6tv\u00f6s u. 29., Budapest, 1067","marker-color":"#f00","marker-size":"small"},"geometry":{"type":"Point","coordinates":[19.0623,47.5077]}},{"type":"Feature","properties":{"id":"237","name":"FabLab Budapest","website":"http:\/\/www.fablabbudapest.com\/","twitter":"","facebook":"https:\/\/www.facebook.com\/fabrikacios.laboratorium?","type_lab":"fablab","adress":"E\u00f6tv\u00f6s u. 29., Budapest, 1067","marker-color":"#f00","marker-size":"small"},"geometry":{"type":"Point","coordinates":[19.0623,47.5077]}},{"type":"Feature","properties":{"id":"238","name":"Kitchen","website":"http:\/\/www.kitchenbudapest.hu\/","twitter":"https:\/\/twitter.com\/KIBU","facebook":"https:\/\/www.facebook.com\/kitchenbudapest","type_lab":"fablab","adress":"Raday street 30, district 9, Budapest","marker-color":"#f00","marker-size":"small"},"geometry":{"type":"Point","coordinates":[19.0648,47.4855]}},{"type":"Feature","properties":{"id":"239","name":"College of Engineering Pune","website":"http:\/\/www.coep.org.in\/","twitter":"","facebook":"","type_lab":"Educ","adress":"Pune, Maharashtra, 411011","marker-color":"#f00","marker-size":"small"},"geometry":{"type":"Point","coordinates":[73.8647,18.5226]}},{"type":"Feature","properties":{"id":"240","name":"FabLab CEPT","website":"http:\/\/www.cept.ac.in\/","twitter":"","facebook":"","type_lab":"Educ","adress":"CEPT Universty -- Kasturbhai Lalbhai Campus, University Road, Navrangpura, Ahmedabad, Gujarat, 38000","marker-color":"#f00","marker-size":"small"},"geometry":{"type":"Point","coordinates":[72.5547,23.0388]}},{"type":"Feature","properties":{"id":"241","name":"Indian Institute of Technology","website":"http:\/\/www.iitk.ac.in\/","twitter":"","facebook":"","type_lab":"Educ","adress":"Kanpur, Uttar Pradesh, 208006","marker-color":"#f00","marker-size":"small"},"geometry":{"type":"Point","coordinates":[80.3116,26.448]}},{"type":"Feature","properties":{"id":"242","name":"National Innovation Foundation","website":"http:\/\/www.nif.org.in\/","twitter":"","facebook":"","type_lab":"Educ","adress":"Ahmedabad, Gujarat, 380014","marker-color":"#f00","marker-size":"small"},"geometry":{"type":"Point","coordinates":[72.5604,23.0425]}},{"type":"Feature","properties":{"id":"243","name":"Vigyan Ashram","website":"http:\/\/www.vigyanashram.com\/","twitter":"","facebook":"","type_lab":"Fablab","adress":"Pabal, Maharashtra, 412403","marker-color":"#f00","marker-size":"small"},"geometry":{"type":"Point","coordinates":[74.052,18.8308]}},{"type":"Feature","properties":{"id":"244","name":"DIYBio Ireland","website":"https:\/\/groups.google.com\/foru","twitter":"","facebook":"","type_lab":"biohacklab","adress":"Cork","marker-color":"#f00","marker-size":"small"},"geometry":{"type":"Point","coordinates":[-8.48632,51.8969]}},{"type":"Feature","properties":{"id":"245","name":"Fab Lab Limerick","website":"http:\/\/fablab.saul.ie\/","twitter":"","facebook":"","type_lab":"Fablab","adress":"Limerick, 7 Rutland Street, Limerick, Limerick","marker-color":"#f00","marker-size":"small"},"geometry":{"type":"Point","coordinates":[-8.62416,52.6659]}},{"type":"Feature","properties":{"id":"246","name":"Carbon FabLab","website":"http:\/\/digitalfabrication.ir\/","twitter":"","facebook":"https:\/\/www.facebook.com\/pages\/--Carbon-Ideas-Fab-","type_lab":"Fablab","adress":"#112, Bisotoun St, Yousefabad, Tehran","marker-color":"#f00","marker-size":"small"},"geometry":{"type":"Point","coordinates":[51.4071,35.7292]}},{"type":"Feature","properties":{"id":"247","name":"FabLab Akranes, Innovation Cen","website":"http:\/\/fablabakranes.is\/","twitter":"","facebook":"","type_lab":"Fablab","adress":"Akranes, West","marker-color":"#f00","marker-size":"small"},"geometry":{"type":"Point","coordinates":[-22.0797,64.3192]}},{"type":"Feature","properties":{"id":"248","name":"FabLab Isafjordur","website":"http:\/\/wiki.fablab.is\/wiki\/Fab","twitter":"","facebook":"","type_lab":"Fablab","adress":"Torfnes, \u00cdsafj\u00f6r\u00f0ur, 400","marker-color":"#f00","marker-size":"small"},"geometry":{"type":"Point","coordinates":[-23.1296,66.0754]}},{"type":"Feature","properties":{"id":"249","name":"Fablab Reykjavik","website":"http:\/\/fablab.is\/reykjavik","twitter":"","facebook":"","type_lab":"Fablab","adress":"Eddufell 2, Reykjavik, 111","marker-color":"#f00","marker-size":"small"},"geometry":{"type":"Point","coordinates":[-21.8232,64.1016]}},{"type":"Feature","properties":{"id":"250","name":"FabLab Saudarkrokur, Innovatio","website":"http:\/\/www.fablab.is\/w\/index.p","twitter":"","facebook":"","type_lab":"Fablab","adress":"Sau\u00f0\u00e1rkr\u00f3kur, Northwest","marker-color":"#f00","marker-size":"small"},"geometry":{"type":"Point","coordinates":[-19.6394,65.7461]}},{"type":"Feature","properties":{"id":"251","name":"FabLab Vestmannaeyjar Iceland","website":"http:\/\/nmi.is\/studningur\/enn-a","twitter":"","facebook":"","type_lab":"Fablab","adress":"Faxast\u00edgur 36, Vestmannaeyjab\u00e6r, 900","marker-color":"#f00","marker-size":"small"},"geometry":{"type":"Point","coordinates":[-20.2757,63.4401]}},{"type":"Feature","properties":{"id":"252","name":"DIYBio Israel","website":"https:\/\/groups.google.com\/foru","twitter":"","facebook":"","type_lab":"biohacklab","adress":"Tel Aviv","marker-color":"#f00","marker-size":"small"},"geometry":{"type":"Point","coordinates":[34.7818,32.0853]}},{"type":"Feature","properties":{"id":"253","name":"Creaticity FabLab","website":"http:\/\/creaticityfablab.com\/","twitter":"","facebook":"https:\/\/www.facebook.com\/creaticityfablab","type_lab":"Fablab","adress":"via XXX giugno 28, Tolentino, MC, 62029","marker-color":"#f00","marker-size":"small"},"geometry":{"type":"Point","coordinates":[13.2833,43.2126]}},{"type":"Feature","properties":{"id":"254","name":"FabLab Biella","website":"http:\/\/www.fablabbiella.it\/","twitter":"","facebook":"","type_lab":"Fablab","adress":"Via Corradino Sella, 10, Biella, Italia\/Biella, 13900","marker-color":"#f00","marker-size":"small"},"geometry":{"type":"Point","coordinates":[8.05406,45.5746]}},{"type":"Feature","properties":{"id":"255","name":"FabLab Cascina","website":"http:\/\/www.fablabcascina.org\/","twitter":"","facebook":"https:\/\/www.facebook.com\/groups\/fablabcascina\/","type_lab":"Fablab","adress":"Via Mario Giuntini 25 interno 28, Cascina, PI, 56026","marker-color":"#f00","marker-size":"small"},"geometry":{"type":"Point","coordinates":[10.488,43.6847]}},{"type":"Feature","properties":{"id":"256","name":"FabLab Firenze","website":"http:\/\/www.fablabfirenze.org\/","twitter":"","facebook":"","type_lab":"Fablab","adress":"Via Panciatichi, 14, Firenze, Toscana, 50141","marker-color":"#f00","marker-size":"small"},"geometry":{"type":"Point","coordinates":[11.2389,43.7976]}},{"type":"Feature","properties":{"id":"257","name":"FabLab Milano - Frankenstein G","website":"http:\/\/www.frankensteingarage.","twitter":"https:\/\/twitter.com\/FablabMilano","facebook":"https:\/\/www.facebook.com\/fablabmilano.page","type_lab":"Fablab","adress":"c\/o ZooiLab. Via Savona, 97 20144 Milan","marker-color":"#f00","marker-size":"small"},"geometry":{"type":"Point","coordinates":[9.1523,45.4503]}},{"type":"Feature","properties":{"id":"258","name":"FabLab Napoli","website":"http:\/\/fablabnapoli.it\/","twitter":"http:\/\/twitter.com\/fablabnapoli","facebook":"http:\/\/facebook.com\/fablabnapoli","type_lab":"Fablab","adress":"Corso Campano, 134, Giugliano In Campania, 80014","marker-color":"#f00","marker-size":"small"},"geometry":{"type":"Point","coordinates":[14.188,40.9287]}},{"type":"Feature","properties":{"id":"259","name":"FabLab Palermo","website":"http:\/\/www.fablabpalermo.org\/","twitter":"http:\/\/twitter.com\/fablabpalermo","facebook":"http:\/\/www.facebook.com\/fablabpalermo","type_lab":"Fablab","adress":"Via mariano stabile, 52, Palermo, 90141","marker-color":"#f00","marker-size":"small"},"geometry":{"type":"Point","coordinates":[13.3538,38.1214]}},{"type":"Feature","properties":{"id":"260","name":"FabLab Reggio Emilia","website":"http:\/\/www.fablabreggioemilia.","twitter":"","facebook":"","type_lab":"Fablab","adress":"Reggio Emilia, Reggio Emilia, Emilia-Romagna, 42121","marker-color":"#f00","marker-size":"small"},"geometry":{"type":"Point","coordinates":[10.6363,44.6974]}},{"type":"Feature","properties":{"id":"261","name":"FABLAB Sardegna Ricerche ","website":"http:\/\/sardegnaricerche.it\/fab","twitter":"","facebook":"https:\/\/www.facebook.com\/pages\/FAB-LAB-Sardegna-Ri","type_lab":"Fablab","adress":"Sardegna Ricerche-Parco Tecnologico della Sardegna-Localit\u00e0 Piscina Manna, Pula, Italy, 09010","marker-color":"#f00","marker-size":"small"},"geometry":{"type":"Point","coordinates":[9.0014,39.013]}},{"type":"Feature","properties":{"id":"262","name":"FabLab Sassari","website":"http:\/\/www.fablabsassari.org\/","twitter":"https:\/\/twitter.com\/FabLabSassari","facebook":"http:\/\/facebook.com\/fablab.sassari","type_lab":"Fablab","adress":"Viale Porto Torres n.10, Sassari, 07100","marker-color":"#f00","marker-size":"small"},"geometry":{"type":"Point","coordinates":[8.53537,40.7378]}},{"type":"Feature","properties":{"id":"263","name":"FabLab Terni","website":"http:\/\/www.fablabterni.org\/","twitter":"","facebook":"","type_lab":"Fablab","adress":"via luigi casale, Terni, 05100","marker-color":"#f00","marker-size":"small"},"geometry":{"type":"Point","coordinates":[12.5952,42.5667]}},{"type":"Feature","properties":{"id":"264","name":"Fablab Torino","website":"http:\/\/www.fablabtorino.org\/","twitter":"https:\/\/twitter.com\/fablabtorino","facebook":"https:\/\/www.facebook.com\/fablabtorino?fref=ts","type_lab":"Fablab","adress":"Via Egeo 16, Torino, Piedmont, 10123","marker-color":"#f00","marker-size":"small"},"geometry":{"type":"Point","coordinates":[7.66769,45.05]}},{"type":"Feature","properties":{"id":"265","name":"Fablab Varese","website":"http:\/\/www.fablabvarese.it\/","twitter":"","facebook":"https:\/\/www.facebook.com\/FablabVarese","type_lab":"Fablab","adress":"Via Varese, Varese, 21100","marker-color":"#f00","marker-size":"small"},"geometry":{"type":"Point","coordinates":[8.86119,45.8125]}},{"type":"Feature","properties":{"id":"266","name":"Fablab Venezia","website":"http:\/\/www.fablabvenezia.org\/","twitter":"","facebook":"","type_lab":"Fablab","adress":"Via delle industrie 15 - Edificio Pegaso - PST Vega, Marghera, Venezia, 30175","marker-color":"#f00","marker-size":"small"},"geometry":{"type":"Point","coordinates":[12.2184,45.4674]}},{"type":"Feature","properties":{"id":"267","name":"FabLabGenova","website":"http:\/\/fablabgenova.it\/","twitter":"","facebook":"https:\/\/www.facebook.com\/fablab.genova?fref=ts","type_lab":"Fablab","adress":"c\/o LSOA Buridda, via vertani 1, Genova, Genoa, 16125","marker-color":"#f00","marker-size":"small"},"geometry":{"type":"Point","coordinates":[8.93626,44.4159]}},{"type":"Feature","properties":{"id":"268","name":"Freaknet","website":"http:\/\/freaknet.org\/","twitter":"","facebook":"","type_lab":"medialab","adress":"Via Carnevale 17, 96010 Palazzolo Acreide (SR)","marker-color":"#f00","marker-size":"small"},"geometry":{"type":"Point","coordinates":[14.9059,37.0622]}},{"type":"Feature","properties":{"id":"269","name":"Mediterranean FabLab","website":"http:\/\/www.medaarch.com\/","twitter":"https:\/\/twitter.com\/medfablab","facebook":"","type_lab":"Educ","adress":"Corso Umberto I, 137 - Cava de' Tirreni (SA)","marker-color":"#f00","marker-size":"small"},"geometry":{"type":"Point","coordinates":[14.7046,40.7051]}},{"type":"Feature","properties":{"id":"270","name":"FPGA-CAFE\/FabLab Tsukuba","website":"http:\/\/fpgacafe.com\/","twitter":"","facebook":"","type_lab":"Fablab","adress":"Ritchmond 2 street, 2-9-2 Amakubo, Ibaraki Prefecture, 305-0006","marker-color":"#f00","marker-size":"small"},"geometry":{"type":"Point","coordinates":[140.104,36.1114]}},{"type":"Feature","properties":{"id":"271","name":"FabLab Kamakura","website":"http:\/\/www.fablabkamakura.com\/","twitter":"https:\/\/twitter.com\/fablabkamakura","facebook":"http:\/\/www.facebook.com\/pages\/FabLabKamakura\/35962","type_lab":"Fablab","adress":"Yui no Kura #1, Ougigayatsu, Kamakura-city, Kamakura, Kanagawa Prefecture, 248-0011","marker-color":"#f00","marker-size":"small"},"geometry":{"type":"Point","coordinates":[139.55,35.3215]}},{"type":"Feature","properties":{"id":"272","name":"FabLab Kannai","website":"http:\/\/fablab-kannai.org\/","twitter":"","facebook":"https:\/\/www.facebook.com\/FabLabKannai","type_lab":"fablab","adress":"Yokohama, 231-0012","marker-color":"#f00","marker-size":"small"},"geometry":{"type":"Point","coordinates":[139.638,35.4467]}},{"type":"Feature","properties":{"id":"273","name":"FabLab Kitakagaya","website":"http:\/\/fablabkitakagaya.org\/","twitter":"","facebook":"","type_lab":"fablab","adress":"5-4-12 Kitakagaya, Suminoe-ku, Osaka-shi, 559-0011","marker-color":"#f00","marker-size":"small"},"geometry":{"type":"Point","coordinates":[135.475,34.6233]}},{"type":"Feature","properties":{"id":"274","name":"FabLab Oita","website":"http:\/\/www.faboita.org\/","twitter":"","facebook":"","type_lab":"fablab","adress":"51-6 Higashi Kasuga, Oita, Oita, 870-0037,","marker-color":"#f00","marker-size":"small"},"geometry":{"type":"Point","coordinates":[131.599,33.241]}},{"type":"Feature","properties":{"id":"275","name":"FabLab Sendai","website":"http:\/\/www.fablabsendai-flat.c","twitter":"","facebook":"","type_lab":"Fablab","adress":"IKI Bld. 4-1, Ichiban-cho 2-2-8, Aoba-ku, Sendai, 980-0811","marker-color":"#f00","marker-size":"small"},"geometry":{"type":"Point","coordinates":[140.875,38.2588]}},{"type":"Feature","properties":{"id":"276","name":"FabLab Shibuya","website":"http:\/\/fablabshibuya.org\/","twitter":"","facebook":"https:\/\/www.facebook.com\/fablabshibuya","type_lab":"Fablab","adress":"Co-lab Shibuya Atelier 1-3, Shibuya, Tokyo","marker-color":"#f00","marker-size":"small"},"geometry":{"type":"Point","coordinates":[140,36]}},{"type":"Feature","properties":{"id":"277","name":"Super Fablab","website":"http:\/\/sfc.sfc.keio.ac.jp\/","twitter":"","facebook":"","type_lab":"Fablab","adress":"Social Fabrication Center Keio University, YOKOHAMA, Kanagawa, 252-0882","marker-color":"#f00","marker-size":"small"},"geometry":{"type":"Point","coordinates":[139.428,35.3884]}},{"type":"Feature","properties":{"id":"278","name":"iHub","website":"http:\/\/www.ihub.co.ke","twitter":"","facebook":"https:\/\/www.facebook.com\/iHubNairobi?fref=ts","type_lab":"Fablab","adress":"4th floor, Bishop Magua Centre, Ngong Road, Nairobi","marker-color":"#f00","marker-size":"small"},"geometry":{"type":"Point","coordinates":[36.7331,-1.30819]}},{"type":"Feature","properties":{"id":"279","name":"m:Lab East Africa","website":"http:\/\/mlab.co.ke\/","twitter":"https:\/\/twitter.com\/mlabeastafrica?original_refere","facebook":"","type_lab":"Fablab","adress":"Bishop Magua centre, George Padmore Road, Opp Uchumi Hyper, Ng\u2019ong Road, PO Box 58275-00200, Nairobi","marker-color":"#f00","marker-size":"small"},"geometry":{"type":"Point","coordinates":[36.8219,-1.29207]}},{"type":"Feature","properties":{"id":"280","name":"NaiLab","website":"http:\/\/www.nailab.co.ke\/","twitter":"https:\/\/twitter.com\/thenailab","facebook":"https:\/\/www.facebook.com\/nailabkenya","type_lab":"Fablab","adress":"Ngong Road, 4th Floor of the Bishop Magua Center, Nairobi","marker-color":"#f00","marker-size":"small"},"geometry":{"type":"Point","coordinates":[36.8219,-1.29207]}},{"type":"Feature","properties":{"id":"281","name":"iLab","website":"http:\/\/ilabliberia.org\/","twitter":"https:\/\/twitter.com\/iLabLiberia","facebook":"","type_lab":"Fablab","adress":"20th Street and Payne Ave, Apt #5, Sinkor, Monrovia","marker-color":"#f00","marker-size":"small"},"geometry":{"type":"Point","coordinates":[-10.7464,6.27272]}},{"type":"Feature","properties":{"id":"282","name":"CYLAND MediaArtLab Vilnius","website":"http:\/\/www.cyland.org\/","twitter":"","facebook":"","type_lab":"medialab","adress":"UMI, U\u017eupio str. 2A, Vilnius, Lithuania","marker-color":"#f00","marker-size":"small"},"geometry":{"type":"Point","coordinates":[25.2796,54.6872]}},{"type":"Feature","properties":{"id":"283","name":"Latvijas Universit?tes FabLab","website":"http:\/\/www.biznesainkubators.l","twitter":"","facebook":"https:\/\/www.facebook.com\/biznesa.inkubators?ref=hl","type_lab":"Educ","adress":"Aspazijas bulv?ris 5, Riga, LV-1050","marker-color":"#f00","marker-size":"small"},